empty_slots,free_bikes,id,latitude,longitude,name,timestamp,extra.banking,extra.ebikes,extra.last_updated,extra.payment-terminal,extra.renting,extra.returning,extra.slots,extra.station_id,extra.uid,extra.payment
33,2,78ec9186acd18a0b30bd3156d24b9f8d,48.865983,2.275725,Benjamin Godard - Victor Hugo,2023-12-21T06:28:11.947000Z,False,2,1703138821,False,1,1,35,213688169,16107,
37,17,43c856353b954711f2bbee185a1f9d04,48.85375581057431,2.3390958085656166,André Mazet - Saint-André des Arts,2023-12-21T06:28:11.858000Z,True,1,1703138531,True,1,1,55,99950133,6015,['creditcard']
30,7,9b2700f3b19beb1dd9df2fd6a013789f,48.867872484749,2.3648982158072,Faubourg Du Temple - Republique,2023-12-21T06:28:08.988000Z,True,1,1703138718,True,1,1,38,312165511,11037,['creditcard']
16,4,80778031e1a033712bfc3a27a190d5dd,48.856451985395786,2.334851883351803,Beaux-Arts - Bonaparte,2023-12-21T06:28:07.017000Z,True,1,1703138484,True,1,1,20,210405211,6021,['creditcard']
21,0,f8f9ec30d28856f9b7fad103be9e4674,48.87929591733507,2.3373600840568547,Toudouze - Clauzel,2023-12-21T06:28:07.640000Z,True,0,1703138334,True,1,1,21,36255,9020,['creditcard']
13,6,59f355492ad3a784fdba53e67467b207,48.855907555969,2.3925706744194,Charonne - Robert et Sonia Delaunay,2023-12-21T06:28:11.465000Z,False,4,1703138650,False,1,1,20,516709288,11104,
2,27,6e0dbb5b877eec618e2b40acdfcc6bb8,48.840855311763,2.3875549435616,Mairie du 12ème,2023-12-21T06:28:01.876000Z,False,12,1703138791,False,1,1,30,37815204,12109,
51,8,268880c2481e7aa03975a7f4ee985945,48.851296433665276,2.325061820447445,Square Boucicaut,2023-12-21T06:28:11.805000Z,True,4,1703138354,True,1,1,60,210566542,7003,['creditcard']
28,13,11d2a821689732b32a0b4178425a3189,48.851518815017,2.3436703160405,Harpe - Saint-Germain,2023-12-21T06:28:11.924000Z,True,1,1703138613,True,1,1,45,100769544,5001,['creditcard']
25,13,9468274d3c6d8dd8c367c4b8650c869e,48.881973298352,2.301132157445,Jouffroy d'Abbans - Wagram,2023-12-21T06:28:11.481000Z,True,5,1703138471,True,1,1,40,54000559,17026,['creditcard']
24,10,c9edcdf32809c955e2ab833381c149a2,48.88287775178599,2.287667370814871,Guersant - Gouvion-Saint-Cyr,2023-12-21T06:28:05.793000Z,True,7,1703138303,True,1,1,36,85043758,17041,['creditcard']
40,20,45c2573f9bb3d58a288af4247ff3f406,48.871044051984,2.3661044619878,Alibert - Jemmapes,2023-12-21T06:28:04.676000Z,True,2,1703138689,True,1,1,60,123095125,10013,['creditcard']
17,5,7d145bbd89111d7193b951dfc6c02487,48.874422773426545,2.3284685611724854,Caumartin - Provence,2023-12-21T06:28:05.788000Z,True,3,1703138632,True,1,1,22,129026597,9104,['creditcard']
21,4,ff7997b9155b49ebda0f3e7ea20e4d89,48.837525839067,2.3360354080796,Cassini - Denfert-Rochereau,2023-12-21T06:28:09Z,True,2,1703138585,True,1,1,25,251039991,14111,['creditcard']
17,2,f0ced785f9435ff9284445a1897856e1,48.85165383178419,2.3308077827095985,Saint-Sulpice,2023-12-21T06:28:06.652000Z,True,1,1703138697,True,1,1,21,37874517,6003,['creditcard']
7,11,d1d88931b3ec2bdadebae98bce0a775d,48.853147816545,2.3263905197382,Raspail - Varenne,2023-12-21T06:28:00.900000Z,False,2,1703138705,False,1,1,18,210567545,7004,
15,7,8ab5dcca384aad21e3b083a30d6ae263,48.84389286531899,2.3519663885235786,Lacépède - Monge,2023-12-21T06:28:10.900000Z,True,3,1703138449,True,1,1,23,210403080,5110,['creditcard']
15,2,7d6ba3781c835c4a552b373689b71188,48.84708159081946,2.321374788880348,Saint-Romain - Cherche-Midi,2023-12-21T06:28:06.332000Z,False,0,1703138676,False,1,1,17,210561800,6108,
9,21,0e3c0f14de288ac43c5a8b0a1cbc33b9,48.91039875761846,2.3851355910301213,André Karman - République,2023-12-21T06:28:07.821000Z,False,17,1703138728,False,1,1,31,209063434,33006,
15,12,036b6154355561cef963080cc32a2dbd,48.81580226360801,2.376804985105991,Pierre et Marie Curie - Maurice Thorez,2023-12-21T06:28:07.744000Z,False,10,1703138819,False,1,1,27,94555589,42016,
41,8,d16fc1f39f76274493aa77c45f2b36e5,48.836022242886884,2.4708339950830287,Bois de Vincennes - Gare,2023-12-21T06:28:00.923000Z,True,5,1703138688,True,1,1,50,244498842,41301,['creditcard']
3,22,b5e0ce34d56d5a00d64947b6045b9fdc,48.835583838706,2.2325500845909,Silly - Galliéni,2023-12-21T06:28:11.418000Z,True,3,1703138684,True,1,1,25,43195240,21010,['creditcard']
35,12,6a847ac4b705e2863bba9460a0b320fe,48.835092787824,2.3534681351338,Le Brun - Gobelins,2023-12-21T06:28:10.028000Z,True,1,1703138397,True,1,1,48,66491398,13007,['creditcard']
21,4,ac090301d156f8658f2421b14e637615,48.879089,2.354235,Gare du Nord - Place de Valenciennes,2023-12-21T06:28:08.644000Z,True,0,1703138459,True,1,1,25,653062048,10152,['creditcard']
52,6,a497dc1ed4a61b01828f0f64ba00aec4,48.876116,2.288124,Grande Armée - Brunel,2023-12-21T06:28:11.781000Z,True,5,1703138801,True,1,1,62,207633746,17038,['creditcard']
10,9,a1608bb58dff0b09b90fc7a0f4955d83,48.794902381218904,2.3734183609485626,Génie - Mozart,2023-12-21T06:28:11.280000Z,False,8,1703138615,False,1,1,19,1333959209,44012,
12,3,77d33d7defdf65816fbd6a5919b0b299,48.84504716661511,2.3494647851273465,Thouin - Cardinal Lemoine,2023-12-21T06:28:06.228000Z,False,2,1703138332,False,1,1,17,210397939,5016,
18,23,75577927f1cca5915590bc2d46e1b5c8,48.8570414504784,2.37289470306807,Froment - Bréguet,2023-12-21T06:28:05.842000Z,True,3,1703138649,True,1,1,43,82405965,11025,['creditcard']
13,5,b36411fb0a33a59d977438de7a3dbd3e,48.84479928858768,2.329337755887181,Notre-Dame-des-Champs - Stanislas,2023-12-21T06:28:08.956000Z,True,5,1703138783,True,1,1,19,27414578,6006,['creditcard']
27,24,7268faf54f66d26bfcde7f0cf3396b50,48.83310149953933,2.299380004405976,Morillons - Dantzig,2023-12-21T06:28:05.812000Z,False,16,1703138813,False,1,1,52,213682736,15047,
47,24,2937695fcc7dc6bc7669a8f85fd6d90c,48.851315406715976,2.2919502854347233,Grenelle - Dr Finlay,2023-12-21T06:28:00.532000Z,True,2,1703138781,True,1,1,71,85008390,15028,['creditcard']
19,13,bf673f18227a42a5dcc3da272b83a8e9,48.879406604954,2.3034455627202988,Chazelles - Courcelles ,2023-12-21T06:28:00.774000Z,True,5,1703138624,True,1,1,35,80101533,17025,['creditcard']
25,7,fceca1139eb3598f85221418a2eed143,48.830981659316855,2.3481646925210953,Croulebarde - Corvisart,2023-12-21T06:28:11.508000Z,True,3,1703138518,True,1,1,34,54000581,13101,['creditcard']
30,11,ff22697fcb655df134aa23e633587ca6,48.871031137596,2.379056852114,Ramponeau - Belleville,2023-12-21T06:28:10.801000Z,True,6,1703138665,True,1,1,44,599135701,20143,['creditcard']
18,3,06a1142ebde3cb6346c4a4fc864c5dc2,48.82234096593411,2.327861653302471,Le Brix et Mesmin - Jourdan,2023-12-21T06:28:11.384000Z,False,2,1703138696,False,1,1,21,13105968,14108,
33,4,09d581adc5efda8a6e0c2eff61397cc2,48.86785,2.446748,Romainville - Vaillant-Couturier,2023-12-21T06:28:07.168000Z,False,4,1703138821,False,1,1,38,653208733,31024,
12,3,6eb8825f820d60b3d97416cf5aa6d06b,48.83823094269141,2.270506024360657,Général Martial Valin - Pont du Garigliano,2023-12-21T06:28:02.736000Z,False,2,1703138289,False,1,1,16,506455295,15068,
14,6,b72bbb7eb5c7086e574f95846674e2f6,48.790147809608,2.4328628182411,Liberté - Vert-de-Maisons,2023-12-21T06:28:11.345000Z,True,4,1703138516,True,1,1,20,907054879,47007,['creditcard']
4,25,cf0dcc3cdde692e1fca56a31ff549fff,48.89792240854517,2.32851451022192,Porte de Saint-Ouen - Bessières,2023-12-21T06:28:09.909000Z,False,16,1703138455,False,1,1,42,129094535,17044,
17,13,eaa35ac247bece89efd3383bc2c7dad4,48.853844054333514,2.289705348222022,Bir Hakeim,2023-12-21T06:28:09.790000Z,True,1,1703138781,True,1,1,33,27415224,15026,['creditcard']
3,26,c9326a3111d3c44e3ac8114db5b2a677,48.79628807093802,2.417212128639221,Jules Guesde - Pont du Port à l'Anglais,2023-12-21T06:28:01.406000Z,True,0,1703138564,True,1,1,30,499303158,44017,['creditcard']
20,21,5349a87a2dc217a11ab002391c09f021,48.89594736851349,2.381133802246315,Cambrai - Benjamin Constant,2023-12-21T06:28:11.549000Z,False,19,1703138741,False,1,1,43,54000612,19033,
26,4,5cc8f47571f1fbacc37b07b700ded02e,48.882428,2.314002,De Toqueville - Terrasse,2023-12-21T06:28:07.051000Z,True,3,1703138430,True,1,1,30,88230992,17048,['creditcard']
20,2,1d59cee64768545a2f6672df4527d9c5,48.840579923690115,2.2584119439125065,Michel-Ange - Parent de Rosan,2023-12-21T06:28:09.832000Z,False,1,1703138661,False,1,1,26,27415302,16118,
13,13,90f695e0c1794b98ef78df609ee1af83,48.84884147189881,2.426325418925233,Lagny - Victor Basch,2023-12-21T06:28:07.014000Z,True,7,1703138626,True,1,1,26,102747146,43002,['creditcard']
18,0,ef6f3e60f8625a95574d4ba5cf0db701,48.8804934032465,2.39806417375803,Serrurier,2023-12-21T06:28:00.784000Z,False,0,1703138362,False,1,1,18,42950839,19027,
5,18,dcde9d0eedef52a437a0a6fbd1b4c19e,48.892648526839,2.2136941552162,Théâtre des Amandiers - Palais des sports,2023-12-21T06:28:00.544000Z,False,12,1703138822,False,1,1,23,653197324,92002,
14,11,6dfb5192fb139d203175e04219fea536,48.81807418981508,2.3267009854316716,Louis Lejeune - Barbès,2023-12-21T06:28:09.372000Z,False,10,1703138359,False,1,1,25,653132534,21216,
23,1,060b5cdb163a466a33c867a3d3d643ee,48.848951441614,2.3411329463124,Vaugirard - Monsieur le Prince,2023-12-21T06:28:10.680000Z,True,1,1703138464,True,1,1,26,210408693,6029,['creditcard']
17,5,76d95de2fa489b3287c50f7b8fa43992,48.78980918988166,2.3143940046429634,Rond-point du Dr Albert Schweitzer,2023-12-21T06:28:09.663000Z,False,5,1703138773,False,1,1,22,1057149522,22207,
33,0,146ba8cb83644c5f97a41aef5d403646,48.871417284355,2.3076787590981,Boétie - Ponthieu,2023-12-21T06:28:08.024000Z,True,0,1703138244,True,1,1,33,128986726,8050,['creditcard']
16,25,94426ad2d7f2d578154b9fc0741e50a6,48.888735896947,2.3469526693225,Custine - Ramey,2023-12-21T06:28:11.891000Z,True,17,1703138749,True,1,1,41,15433394,18015,['creditcard']
13,12,5c2cc3d86482f8eb7a2024c4c0a6c6a7,48.8693268535238,2.395084574818611,Pyrénées - Ménilmontant,2023-12-21T06:28:01.044000Z,False,12,1703138806,False,1,1,26,85123644,20035,
36,3,f6f2086e5cd5a502faa6b5428626721c,48.86785342111862,2.349364310503006,Caire - Dussoubs,2023-12-21T06:28:08.896000Z,False,0,1703138649,False,1,1,40,27414512,2017,
13,3,ed48e8a94a3b5e6f3cd48e0ecce358a5,48.879161,2.343698,Tour d'Auvergne - Rodier,2023-12-21T06:28:09.648000Z,False,0,1703138711,False,1,1,17,210580039,9008,
57,4,eb3335b8528855e4669ddd490118c97f,48.861411014652,2.3201214185208,Assemblée Nationale,2023-12-21T06:28:02.793000Z,True,3,1703138534,True,1,1,63,210568512,7009,['creditcard']
11,8,d41d50eb287ee527848755b3a31ee559,48.879355,2.358379,Dunkerque - Alsace,2023-12-21T06:28:03.500000Z,False,4,1703138816,False,1,1,20,210585225,10027,
1,13,9eca9e39a4bd2df5f0a272db2c944f15,48.8214169,2.342167,Liard - Amiral Mouchez,2023-12-21T06:28:10.917000Z,True,8,1703138795,True,1,1,14,35149611,14013,['creditcard']
0,35,1543bd52c06ef5bdb4d4b5ee34cc486a,48.8351212784276,2.385534569621086,Gabriel Lamé,2023-12-21T06:28:02.316000Z,True,4,1703138575,True,1,1,36,55927887,12031,['creditcard']
16,5,5cb98cdf20ab69563923aed8167ae8a9,48.859091104741,2.3185685276985,Las Cases - Bourgogne,2023-12-21T06:28:08.117000Z,False,1,1703138684,False,1,1,22,210570888,7011,
11,14,fe5431d0976be760a51e34e21383f0f9,48.88949630486821,2.333393658804396,Félix Ziem - Armand Gauthier,2023-12-21T06:28:03.660000Z,False,14,1703138808,False,1,1,25,129107656,18111,
13,27,ee5f8237d94f94862fac6e27c8f1c348,48.894799816683985,2.318705212173216,Jonquière - Docteur Paul Brousse,2023-12-21T06:28:11.708000Z,True,12,1703138695,True,1,1,40,129088667,17010,['creditcard']
24,5,67447a40039cae5e6f47f8ffb8fd2b26,48.87320440102894,2.323658830743138,Square Louis XVI,2023-12-21T06:28:09.757000Z,True,3,1703138444,True,1,1,29,128930462,8016,['creditcard']
18,4,55d766b2cfd797e5962b8a5133cb9a33,48.78448485079149,2.35908430069685,Youri Gagarine - Karl Marx,2023-12-21T06:28:04.100000Z,False,2,1703138417,False,1,1,22,1057228658,48003,
17,3,99678a6a0780e479f54c08a1305d2a2a,48.86106902949534,2.2730283066630363,Octave Feuillet - Albéric Magnard,2023-12-21T06:28:11.236000Z,False,3,1703138699,False,1,1,21,230873471,16110,
25,0,a5816027f41b2799e91b665c95e1938d,48.8978867,2.3458001,Ney - Porte de Clignancourt,2023-12-21T06:28:09.524000Z,False,0,1703138597,False,0,0,25,507934805,18134,
24,0,18d63d7f1b3c402d11816c5f07658e57,48.844730256132095,2.341923944866407,Gay Lussac - Saint-Jacques,2023-12-21T06:28:11.675000Z,False,0,1703138543,False,1,1,24,7254,5005,
35,15,27c45001b48e6b0c3965b412f618d813,48.8468428626593,2.452062070369721,Place Jean-Spire-Lemaître,2023-12-21T06:28:03.604000Z,True,8,1703138694,True,1,1,50,129164969,43009,['creditcard']
16,9,9e88938078e837e55a03cf6193682de5,48.874750203956566,2.301771435325988,Place Georges Guillaumin,2023-12-21T06:28:11.382000Z,False,7,1703138769,False,1,1,29,128989986,8053,
9,8,4264d28f99b033dcae11a325376f75b1,48.87759897050706,2.348463758826256,Bellefond - Poissonnière,2023-12-21T06:28:10.690000Z,True,2,1703138538,True,1,1,17,129004826,9001,['creditcard']
10,11,67b871714c5747e4b27c22703cf13013,48.88655580065981,2.288640439510346,Jean Oestreicher - Porte de Champerret,2023-12-21T06:28:03.758000Z,False,8,1703138541,False,1,1,21,518825709,17032,
15,8,ffebae556fb025e5425befa8f1a43308,48.87935941942529,2.366596162319184,Alexandre Parodi - Quai de Valmy,2023-12-21T06:28:10.881000Z,True,1,1703138409,True,1,1,24,911767210,10162,['creditcard']
6,13,a41c910adee6a07881812ef4abcd1e5d,48.851419978983,2.3097044974566,Ségur - d'Estrées,2023-12-21T06:28:05.046000Z,False,5,1703138816,False,1,1,19,128887067,7018,
15,11,415e59bd5a8ba4b267518de1c81f0cd2,48.8761373390584,2.3680844979417,Granges aux Belles,2023-12-21T06:28:11.496000Z,False,6,1703138563,False,1,1,27,54000565,10115,
12,50,8a5aed60fc8805d38fdc6f00088538bf,48.82435782216384,2.377065159380436,Regnault - Patay,2023-12-21T06:28:08.538000Z,False,5,1703138707,False,1,1,63,1057296253,13118,
29,15,0f3ac6a9fb5eb3f43e1a0c1980f05f4a,48.877753,2.327339,Gare Saint-Lazare - Place de Budapest,2023-12-21T06:28:10.852000Z,True,10,1703138656,True,1,1,44,210581084,9035,['creditcard']
45,1,894197f05300286868f6ed8858a881c1,48.83940266673835,2.32971478253603,Edgar Quinet - Raspail,2023-12-21T06:28:04.864000Z,True,1,1703138292,True,1,1,46,205047993,14002,['creditcard']
30,5,da851a915c41eb46abc46b738d798530,48.891457726153774,2.348636478060487,Clignancourt - Ordener,2023-12-21T06:28:04.212000Z,True,4,1703138770,True,1,1,35,102311820,18024,['creditcard']
19,4,4c195e576b892f6d3350a36e59a52ff3,48.880726,2.351464,Dunkerque - Rocroy,2023-12-21T06:28:05.616000Z,False,1,1703138738,False,1,1,24,210586093,10029,
8,6,012b17de09d1300f63c8b63067b39063,48.879223,2.349147,Abbeville - Faubourg Poissonnière,2023-12-21T06:28:11.689000Z,True,4,1703138739,True,1,1,14,210574471,9002,['creditcard']
13,7,c6a39a31a86611c31fb3c34bae46e8f5,48.8462904,2.3521495,Boulangers - Cardinal Lemoine,2023-12-21T06:28:08.981000Z,True,4,1703138298,True,1,1,20,72765603,5022,['creditcard']
3,11,de40d516ab36b574ee1990157165d4ef,48.87219,2.329423,Boudreau - Auber,2023-12-21T06:28:11.805000Z,False,8,1703138752,False,1,1,14,210582921,9106,
17,14,b12be68f3b9115784f498398517c80a0,48.875642647477,2.3594588041306,Gare de l'Est - Faubourg-Saint-Martin,2023-12-21T06:28:10.240000Z,True,8,1703138752,True,1,1,32,369644630,10161,['creditcard']
40,5,782947ad7a5d7a2455bb62bb3f1647b9,48.87973954830735,2.288012132048607,Pereire - Ternes,2023-12-21T06:28:02.724000Z,True,2,1703138584,True,1,1,48,43255030,17040,['creditcard']
24,3,557a0531c4372aa3abe987d7052a8cc7,48.88320784122797,2.3308449949028507,Douai - Bruxelles,2023-12-21T06:28:02.978000Z,False,3,1703138678,False,1,1,27,129025451,9038,
18,22,0b0c4f4ae8c238e0b7eaad2c9a2a9325,48.856691550115315,2.306646779179573,Champ de Mars - Cler,2023-12-21T06:28:09.556000Z,True,3,1703138779,True,1,1,41,128889359,7020,['creditcard']
15,2,fe6481666c6964991af2fec0b5573fd3,48.857058739111,2.3417982839439,Quai de l'Horloge - Pont Neuf,2023-12-21T06:28:11.927000Z,True,1,1703138813,True,1,1,17,323616530,1001,['creditcard']
20,6,aa7ead9254a3eeddc94f3a0c1f5401f1,48.874777677621296,2.326515804784655,Gare Saint-Lazare - Isly,2023-12-21T06:28:06.628000Z,True,2,1703138684,True,1,1,27,128920403,8009,['creditcard']
11,6,fe416377651bc1716038b396302b77e0,48.883667,2.395733,Ambroise Rendu - Porte Brunet,2023-12-21T06:28:11.188000Z,False,6,1703138724,False,1,1,17,208795867,19105,
4,55,6cbe15611593e1cffd0a9abf54aeffc8,48.845515089794,2.3726498446286,Gare de Lyon - Place Louis Armand,2023-12-21T06:28:10.018000Z,True,9,1703138793,True,1,1,60,66491397,12151,['creditcard']
15,1,a9bc03f19bd965f2edd21e4292c15c67,48.857615678565,2.3358313530377,Institut de France,2023-12-21T06:28:11.117000Z,True,0,1703138511,True,1,1,17,6296,6001,['creditcard']
7,15,d69e6c49d6c6695f57da105b15f25945,48.8978765,2.3230632,Porte Pouchet-Bessières,2023-12-21T06:28:10.045000Z,False,14,1703138755,False,1,1,23,521393180,17008,
21,2,cd91e4c9d707d0bebb4bd6677305110e,48.838683941628375,2.3110422492027287,Vigée-Lebrun - Anselme Payen,2023-12-21T06:28:08.824000Z,False,1,1703138797,False,1,1,24,576188379,15112,
31,5,fd8468cc02da7b7af7e2595ecb6732c7,48.849063299501,2.3558086529374,Institut du Monde Arabe - Saint-Germain,2023-12-21T06:28:10.908000Z,True,2,1703138666,True,1,1,40,128882438,5020,['creditcard']
19,12,b88622fa2683838b0565e7e0be139d6e,48.856502977696,2.2931787543289,Octave Gréard - Tour Eiffel,2023-12-21T06:28:11.244000Z,True,7,1703138737,True,1,1,33,128915891,7025,['creditcard']
18,6,c6cd3ee1a82b246c5cb86035faa68d1a,48.862923800596,2.4155035614967,Château - République,2023-12-21T06:28:11.981000Z,False,5,1703138448,False,1,1,26,82567101,31706,
26,7,f4eef18fca1505fcf19873c2f29849bd,48.8847601,2.3534657,Chartres - La Charbonnière,2023-12-21T06:28:05.916000Z,False,3,1703138811,False,1,1,34,230877798,18107,
24,7,e2671fe4b8fcccbbeeaaab7ef7ec9ff0,48.87745567681383,2.309694221419506,Lisbonne - Monceau,2023-12-21T06:28:01.789000Z,True,4,1703138601,True,1,1,33,82379648,8036,['creditcard']
15,1,8d5e18ea3b29e7080dc930aeea34b28d,48.88006587474148,2.3310810327529907,Moncey - Blanche,2023-12-21T06:28:10.940000Z,False,0,1703138786,False,1,1,17,129021753,9028,
8,14,27bde1c8b2832e7f88b2c34a98ec4404,48.876719895109,2.344393021854,Rochechouart lamartine,2023-12-21T06:28:08.418000Z,True,1,1703138542,True,1,1,24,129011497,9010,['creditcard']
1,12,c112a52278dd51eab5e8e5714fe9ec8e,48.87748519186726,2.3660067468881607,Jemmapes - Ecluses Saint-Martin,2023-12-21T06:28:11.347000Z,True,5,1703138580,True,1,1,15,35642049,10025,['creditcard']
11,13,c923203a02ef3af397694f3c550a182c,48.88917613743794,2.3833653330802917,Thionville - Ourcq,2023-12-21T06:28:11.395000Z,True,9,1703138714,True,1,1,24,50191171,19015,['creditcard']
21,28,bdb86d14e2bd6354e7aa1e7c7610acd4,48.881949,2.352339,Gare du Nord - Hôpital Lariboisière,2023-12-21T06:28:01.672000Z,False,11,1703138439,False,1,1,49,210740080,10107,
24,13,03da963d41687bb7670f411eab74036c,48.88896161855884,2.322528975094376,Legendre - Clichy,2023-12-21T06:28:11.096000Z,True,2,1703138639,True,1,1,40,129087587,17004,['creditcard']
17,5,c503eafcf1cc851ff3626fe92a7d0f9a,48.884492238407525,2.3703941702842717,Quai de la Seine,2023-12-21T06:28:10.154000Z,True,5,1703138672,True,1,1,24,213693511,19003,['creditcard']
7,11,226a0d91ca8223376402711fd4838710,48.870702423554306,2.358739863900845,Cité Riverin - Château d'Eau,2023-12-21T06:28:11.700000Z,True,1,1703138750,True,1,1,18,95845524,10008,['creditcard']
22,11,3cc2baaa200956820d5c8251505afd0e,48.848225572724,2.3502873256803,Mutualité,2023-12-21T06:28:03.632000Z,True,4,1703138672,True,1,1,37,37815993,5018,['creditcard']
30,2,e911d07b60f6a50248e5db3bb3e23668,48.87334627510507,2.337980867701675,Rossini - Laffitte,2023-12-21T06:28:11.396000Z,False,0,1703138661,False,1,1,33,129014600,9022,
34,6,0ee885234307805f3d12d98e8c016fa1,48.872010281270974,2.392039597034455,Pyrénées - Emmery,2023-12-21T06:28:11.296000Z,False,6,1703138787,False,1,1,40,102324803,20042,
18,26,d40c98f308326f0b185cf41bb9a394ac,48.847208456061,2.3861273378134,Diderot - Reuilly,2023-12-21T06:28:03.160000Z,True,11,1703138746,True,1,1,44,912377361,12161,['creditcard']
16,21,acdd3a2005f56b2d29fe9be35e2a7b17,48.862147844548,2.3772348091006,Saint-Ambroise - Parmentier,2023-12-21T06:28:11.499000Z,True,1,1703138811,True,1,1,38,54000569,11027,['creditcard']
32,6,768ddc2b2ca4a55976019dd0b9f6433d,48.88022154052015,2.2854680567979813,Belidor - Gouvion-Saint-Cyr,2023-12-21T06:28:00.779000Z,True,3,1703138802,True,1,1,39,80216231,17043,['creditcard']
12,14,6ab04d33c2786fdee83912ebd000afe1,48.836395736424,2.2784192115068,Place Balard,2023-12-21T06:28:01.293000Z,True,2,1703138726,True,1,1,22,34742973,15056,['creditcard']
6,11,87f0c36c975001dfef7afda904d36892,48.88192765861766,2.392586767673493,Place de Rhin et Danube,2023-12-21T06:28:00.979000Z,False,10,1703138690,False,1,1,17,336511521,19026,
12,11,cfe8facd91fe4fcbc173fe6b051e0524,48.85507930579506,2.3733686318721463,Roquette - Thiéré,2023-12-21T06:28:07.231000Z,True,3,1703138610,True,1,1,23,129043651,11002,['creditcard']
30,5,b11592abb8ce4ddfe3e9739a7bc5cd4e,48.874746047357135,2.3082953318953514,Berri - Haussmann,2023-12-21T06:28:11.877000Z,False,2,1703138564,False,1,1,35,39296638,8034,
10,34,7caaf63216ae02be12a826198641e5a6,48.858688774062955,2.383553994571467,Saint-Maur - Roquette,2023-12-21T06:28:11.824000Z,True,13,1703138654,True,1,1,46,129048000,11023,['creditcard']
7,29,f696f217a77bc8b7e96864fee9ba937d,48.80889533774377,2.5382421165704727,11 Novembre 1918 - 8 Mai 1945,2023-12-21T06:28:04.892000Z,False,19,1703138731,False,1,1,36,1062250686,45003,
14,12,508b6b7baae451f439f9dd5486fba870,48.8687591,2.4329931,Place Du Général De Gaulle,2023-12-21T06:28:11.664000Z,False,11,1703138339,False,1,1,26,261987383,31009,
23,25,2f1849de3b0950efa3c1f6ff643e1dc3,48.84097491091973,2.264390252530575,Exelmans - Versailles,2023-12-21T06:28:07.818000Z,True,3,1703138369,True,1,1,49,82562556,16039,['creditcard']
5,18,5b5eb9e7584013b19ee1436863a9847f,48.88364782887555,2.2952447086572647,Pereire - Rennequin,2023-12-21T06:28:00.735000Z,True,6,1703138630,True,1,1,23,126050442,17030,['creditcard']
10,7,1bcceac18c43cbd011a06e94e834004a,48.837668272811,2.3448138346607,Port-Royal - Hôpital du Val-de-Grâce,2023-12-21T06:28:05.288000Z,True,1,1703138712,True,1,1,18,210749865,13001,['creditcard']
5,22,036690096dedbfd7f1935ac0092059fe,48.83761417037952,2.397253782195704,Claude Decaen - Cannebière,2023-12-21T06:28:09.946000Z,False,9,1703138727,False,1,1,27,27363489,12111,
14,0,22f639abbb0f8eec55bae6cb153ceef8,48.842524,2.364044,Gare d'Austerlitz,2023-12-21T06:28:10.821000Z,True,0,1702824986,True,0,0,14,210753033,13014,['creditcard']
5,7,dbb7e83a4d2d4319bffa00d41ab333c5,48.852804604940296,2.293077029857222,Desaix - Edgar Faure,2023-12-21T06:28:04.696000Z,True,2,1703138549,True,1,1,12,101763163,15067,['creditcard']
43,7,3d73de49edcca885c3a7853f26193b02,48.893923963057865,2.39790290594101,Delphine Seyrig - Général Leclerc,2023-12-21T06:28:11.992000Z,False,4,1703138641,False,1,1,53,205938683,19043,
37,1,55a74d7a373b87349702949cca7ba8ab,48.84702057165222,2.3464982619671075,Panthéon - Valette,2023-12-21T06:28:09.705000Z,False,1,1703138483,False,1,1,39,210399835,5032,
3,20,6d5f0ea757d3d4afdd55dfbee5e5c64e,48.8750898883217,2.3826304078102116,Square Simon Bolivar,2023-12-21T06:28:09.564000Z,False,20,1703138811,False,1,1,24,13718041,19101,
13,3,acd91d023955ffa2985c8862fa796cdd,48.875034655883944,2.359801238597928,Récollets - Square Villemin,2023-12-21T06:28:05.105000Z,False,2,1703138751,False,1,1,17,129034587,10016,
17,11,3b7771b8286349881fb9e5b67577eed5,48.861142162761,2.3677996181077,Amelot - Saint-Sébastien,2023-12-21T06:28:10.793000Z,False,2,1703138791,False,1,1,30,813544903,11047,
32,9,8e9a06c5972efc20de0b1c9e42dd2483,48.85154484769,2.3146149516106,Saint-François-Xavier,2023-12-21T06:28:08.960000Z,True,4,1703138795,True,1,1,42,27414601,7014,['creditcard']
4,27,c3250e94d8848caf3f29646b63ca09a3,48.81411442356866,2.39090770483017,Place Marcel Cachin,2023-12-21T06:28:07.071000Z,True,3,1703138809,True,1,1,32,230952057,42014,['creditcard']
14,19,cd69b7db0fd7ebeee93947815fa06b25,48.82237977153955,2.4586871266365056,Pyramide - Ecole du Breuil ,2023-12-21T06:28:11.425000Z,False,3,1703138599,False,1,1,34,508042092,12128,
10,6,9b91251c38bc1e4e1879ad831cfedad9,48.8795431,2.3264628,Liège - Moscou,2023-12-21T06:28:10.732000Z,False,5,1703138783,False,1,1,17,42603855,8010,
41,11,26a2b9a78176ab057ac5b826aea3df83,48.86131452758348,2.440614402294159,Mairie de Montreuil,2023-12-21T06:28:07.318000Z,True,9,1703138736,True,1,1,52,818302209,31022,['creditcard']
47,9,d69467838ced5f3d7d6af24fe371de30,48.8667175,2.3692541,Richard Lenoir - Republique,2023-12-21T06:28:00.930000Z,True,0,1703138641,True,1,1,58,532054446,11113,['creditcard']
37,31,a31aed60ff2963c8bfe4ff747e3c8cca,48.8471116,2.3956204,Fabre d'Eglantine - Place de la Nation,2023-12-21T06:28:08.674000Z,True,28,1703138460,True,1,1,68,581480367,12157,['creditcard']
15,28,7f19f458f67464338660a1e2ade3c48c,48.886472466142,2.3328901827335,Cimetière de Montmartre,2023-12-21T06:28:00.627000Z,True,20,1703138804,True,1,1,43,102309973,18003,['creditcard']
10,24,912eb7094e4ad06410e858d6cf1c2f35,48.85708641027236,2.3984125256538396,Bagnolet - Orteaux,2023-12-21T06:28:11.730000Z,True,22,1703138560,True,1,1,36,221043930,20015,['creditcard']
11,16,8684a922b92f476994b3017da087b7de,48.9155156,2.3814103,Anatole France - President Roosevelt,2023-12-21T06:28:11.349000Z,True,12,1703138768,True,1,1,29,583539396,33017,['creditcard']
14,2,626aae3b367a4cfa9dde9e771cd171e2,48.83372430280548,2.2713854536414146,Henry Farman,2023-12-21T06:28:00.854000Z,False,1,1703138714,False,1,1,16,101753100,15042,
19,3,d1d05b02773239aaf28322d7b646f520,48.87403113727167,2.38959476351738,Jourdain - Place des Grandes Rigoles,2023-12-21T06:28:09.924000Z,True,3,1703138663,True,1,1,22,27415466,20112,['creditcard']
59,4,a39734a757cc3e8405c726a31447ff3f,48.87590240712654,2.322616316378116,Rocher - Laborde,2023-12-21T06:28:05.048000Z,True,0,1703138284,True,1,1,65,88140066,8017,['creditcard']
20,5,d1da3c0f31aac127904cd3b60055381a,48.84780306364685,2.445141971111298,Fontenay - Libération,2023-12-21T06:28:10.001000Z,False,2,1703138494,False,1,1,25,66491385,43008,
49,1,a3e47b0db0706d8980ad5ce16e4697b2,48.89738369720229,2.3959985375404362,Grands Moulins de Pantin,2023-12-21T06:28:06.978000Z,False,1,1703138708,False,1,1,50,52393,19044,
23,1,bf825ec63b2762a3c2e10f61cbefe5c5,48.871244610447015,2.4039056897163396,Gambetta - Saint Fargeau,2023-12-21T06:28:10.803000Z,False,1,1703138817,False,1,1,24,42517412,20037,
10,5,d9ab4e54af77924b8e6e4e0f8054af58,48.84706173362218,2.4787822365760808,Cimetière de Fontenay-sous-Bois,2023-12-21T06:28:02.882000Z,False,5,1703138675,False,1,1,15,596813170,41209,
7,10,315c13f5430fa293bc523362d2c9c64e,48.88633710236977,2.407338917255402,Gabriel Péri - Francisco Ferrer,2023-12-21T06:28:10.917000Z,False,8,1703138784,False,1,1,18,209057581,33102,
50,4,660c4f1931862fb44696bdb9a0526799,48.864920982538,2.3025491823859,Place de la Reine Astrid,2023-12-21T06:28:10.007000Z,True,2,1703138656,True,1,1,54,66491389,8045,['creditcard']
28,2,afd259141843f240d250d217854b95e7,48.818144834008976,2.271184623241425,Lucie Aubrac - Fort,2023-12-21T06:28:06.884000Z,True,1,1703138567,True,1,1,30,596872103,21312,['creditcard']
9,28,245619a344ea59289f61f27a9a69a146,48.8927825,2.3635598,Pajol - Place Herbert,2023-12-21T06:28:10.040000Z,True,14,1703138685,True,1,1,39,81081358,18011,['creditcard']
12,12,7eddfddc58844d6d4c34b06ac41d8b5d,48.852828153442,2.2978776320815,Fédération - Suffren,2023-12-21T06:28:08.965000Z,True,3,1703138703,True,1,1,25,213684314,15105,['creditcard']
35,27,a87ab4a2181ddd14a7ef18b8c51dd088,48.83769531916335,2.275374233722687,Hôpital Européen Georges Pompidou ,2023-12-21T06:28:06.372000Z,False,4,1703138737,False,1,1,64,535500589,15104,
7,27,f95e25028557f007a30c969f14d83619,48.7985844,2.3821302,Concorde - Stalingrad,2023-12-21T06:28:11.796000Z,True,17,1703138670,True,1,1,35,597245295,44006,['creditcard']
15,11,b1f0b90f2fa3212b58f1d0021ac41a84,48.877436681515796,2.3860743641853337,Carducci - Place Hannah Arendt,2023-12-21T06:28:04.672000Z,False,9,1703138745,False,1,1,27,235513935,19120,
11,5,369df960ee33506c3a598f5fe8f778d9,48.8417514,2.3413893,Saint-Jacques - Val de Grâce,2023-12-21T06:28:01.028000Z,False,2,1703138607,False,1,1,19,27206194,5004,
9,11,81c6917af57589f4738c3a3b55008ab8,48.88467214209463,2.3919698596000676,Manin - Carrières d'Amérique,2023-12-21T06:28:09.948000Z,False,8,1703138428,False,1,1,20,102323152,19103,
17,11,dd52e0cb096996ac0233416fa8f662ce,48.843949064031825,2.415081394834419,Victor Hugo - Jeanne Jugan,2023-12-21T06:28:08.628000Z,False,7,1703138707,False,1,1,28,129060764,12114,
30,2,e61199a82c0da4eec47ec06c33d86bdb,48.828012849445,2.3056878894567,Porte de Vanves,2023-12-21T06:28:10.395000Z,False,2,1703138707,False,1,1,32,828134511,14138,
13,4,58523eb76e479390d1253e58c81d2818,48.866830968942,2.3654810339212,Place de la République - Voltaire,2023-12-21T06:28:05.105000Z,True,3,1703138599,True,1,1,19,129050965,11046,['creditcard']
14,11,6a2c14f71aefa51eaad2cda6c1e6d220,48.77093586667601,2.4034014344215398,Conservatoire de Musique,2023-12-21T06:28:08.476000Z,False,1,1703138263,False,1,1,25,586649404,46003,
11,2,181c9a16dafc3dcae89058267fb52eae,48.874575,2.356796,Gare de l'Est - Fidélité,2023-12-21T06:28:01.949000Z,False,0,1703138746,False,1,1,15,210584503,10017,
23,9,82afb3ca468026dfa2d45e3232c688f3,48.89401874744574,2.3319872841238976,Championnet - Vauvenargues,2023-12-21T06:28:10.824000Z,True,5,1703138765,True,1,1,33,76199461,18028,['creditcard']
5,13,c6d7a786768ad66d80d8234468700590,48.87174684930295,2.3722528328789854,Buisson Saint-Louis - Saint-Maur,2023-12-21T06:28:01.804000Z,False,3,1703138558,False,1,1,19,271426439,10024,
0,0,16412aab9acb0fed26c215d96d088629,48.89579697978,2.3455855841349,Place Albert Kahn,2023-12-21T06:28:04.120000Z,True,0,1688374764,True,0,0,0,27363187,18031,['creditcard']
12,8,b0a83706c92bf562b073f4e5c1452b89,48.879595787608,2.3544725775719,Gare du Nord - Denain,2023-12-21T06:28:11.348000Z,True,2,1703138459,True,1,1,20,594942659,10153,['creditcard']
5,11,0286062e968424bf7ed0e2730471a58e,48.83796366147599,2.2877392172813416,Lecourbe - Jean Maridor,2023-12-21T06:28:06.848000Z,False,3,1703138505,False,1,1,19,213683101,15054,
24,10,d83374f7eaf870abfc72cf207f2a3b8d,48.84993035512154,2.294612042605877,Grenelle - Violet,2023-12-21T06:28:09.532000Z,True,3,1703138584,True,1,1,35,213684750,15106,['creditcard']
31,2,dac92a394d655d0e3436fe8c7d424535,48.859358523593,2.3896131366845,Repos - Cimetière du Père Lachaise,2023-12-21T06:28:11.598000Z,True,2,1703138760,True,1,1,33,54000625,20131,['creditcard']
29,10,00718dcc2fa34b019d9cba625c94b1e7,48.831632518292565,2.3293121159076686,Mouton Duvernet - Général Leclerc,2023-12-21T06:28:06.808000Z,True,7,1703138379,True,1,1,39,129067920,14008,['creditcard']
31,1,80d99e3a323117129b2639ce06f3fbce,48.872420063053,2.3483952362828,Enghien - Faubourg Poissonnière,2023-12-21T06:28:11.269000Z,False,0,1703138687,False,1,1,33,129038848,10042,
4,19,e2111d9f681c2fda195565830e3d3e50,48.836191728066666,2.2811267160086417,Place Robert Guillemard,2023-12-21T06:28:10.681000Z,False,3,1703138695,False,1,1,24,213685514,15110,
35,13,6804f69932aa639140cd339c2d3033a8,48.852233164303,2.3266580700874,Raspail - Chomel,2023-12-21T06:28:11.089000Z,True,3,1703138599,True,1,1,49,544249939,7101,['creditcard']
18,3,8a621999524f1f819e5fdde38cf379d7,48.825218683556734,2.3107116669416428,Marc Sangnier - Porte de Vanves,2023-12-21T06:28:07.583000Z,False,0,1703138610,False,1,1,21,27364743,14106,
27,5,2c1b9fe1588f2a55133e8ecced090087,48.88794016394694,2.326124420314341,Etienne Jodelle - Saint Ouen,2023-12-21T06:28:09.863000Z,False,2,1703138775,False,1,1,33,102314792,18046,
10,16,d57ebdccece8728e9eadba78c16c3602,48.8415473058801,2.233161628246308,Marcelin Berthelot,2023-12-21T06:28:07.760000Z,False,2,1703138810,False,1,1,27,102329800,21006,
14,8,cd99f6fccb3b8308d3a209ed2d50f6b7,48.81527009991819,2.298078276995073,Guy Môquet - Etienne Dolet,2023-12-21T06:28:09.708000Z,False,7,1703138483,False,1,1,23,35447568,22406,
21,7,b5ab69f1149431d5e2d88e6e48c13bfd,48.90713441498779,2.396005728053061,Jean Jaurès - Presles,2023-12-21T06:28:00.600000Z,True,3,1703138618,True,1,1,30,27415736,35002,['creditcard']
9,11,a728c3796d1b4797469bde32fed91fb2,48.876111,2.4677312,Boissière - Etienne Dolet,2023-12-21T06:28:11.203000Z,False,11,1703138763,False,1,1,21,583178525,31102,
13,16,d2b68e9aee4f8d99eb34c854f3b85736,48.781383825117,2.3723508417606,Edouard Tremblay - Julian Grimaux,2023-12-21T06:28:07.038000Z,False,16,1703138604,False,1,1,30,572566600,44013,
29,3,fb6143e08f09ec21268014e1fead6fbc,48.87614039826388,2.301303138307601,Bertie Albrecht - Hoche,2023-12-21T06:28:01.657000Z,True,2,1703138786,True,1,1,32,82387816,8054,['creditcard']
3,20,4108b785296de89b10b751f5bdfbd586,48.826701758539215,2.3384983465075493,Sibelle - Alésia,2023-12-21T06:28:11.806000Z,False,8,1703138771,False,1,1,25,213679512,14012,
16,8,a64573b5190cc358a71dc8214c79271e,48.83495885166784,2.2416803240776066,Hôtel de Ville de Boulogne Billancourt,2023-12-21T06:28:00.782000Z,True,0,1703138700,True,1,1,26,85147829,21005,['creditcard']
5,25,3ba5474502d0aa75bdd2bfcbd01e01cf,48.84240765130395,2.281037718057633,Cevennes - Bergers,2023-12-21T06:28:10.196000Z,True,2,1703138727,True,1,1,29,213685090,15109,['creditcard']
18,12,872fdfe8bc3d8669b1629ee2d40e0a1d,48.81111581390707,2.3145738624448158,Molière - République,2023-12-21T06:28:11.313000Z,False,12,1703138592,False,1,1,30,301841024,21209,
1,20,fe296c930942ae6a13e8ad2e6ea013de,48.82941,2.375934,Chevaleret - Tolbiac,2023-12-21T06:28:09.016000Z,True,13,1703138762,True,1,1,21,213676294,13053,['creditcard']
6,18,d2b097f9d404bc73221242a9845ec9c7,48.89110239200789,2.402843534946442,Hoche - Jean Lolive,2023-12-21T06:28:09.068000Z,True,13,1703138823,True,1,1,24,588452142,35010,['creditcard']
15,7,f58053884704d8d07239df165354fc96,48.821092374256104,2.333725690841675,David Weill - Parc Montsouris,2023-12-21T06:28:02.680000Z,True,5,1703138793,True,1,1,22,213681356,14124,['creditcard']
19,17,ed0463d727df1ad32249367a3f5636ec,48.892371898250424,2.205548956990242,Hôtel de Ville de Nanterre,2023-12-21T06:28:06.348000Z,True,4,1703138766,True,1,1,38,653200142,92008,['creditcard']
24,11,f98b98a999c735ea43a15b32c22e1eda,48.890451120965,2.3490573929687,Marcadet - Barbès,2023-12-21T06:28:10.037000Z,True,1,1703138739,True,1,1,37,66491402,18022,['creditcard']
6,26,0b23d6bf33059c82ee505fb68802f811,48.848563233059,2.3204218259346,Vaneau - Sèvres,2023-12-21T06:28:11.281000Z,False,2,1703138737,False,1,1,35,210565680,7002,
29,14,8561b8c39252e8a4287181c7410b932f,48.821475594736775,2.3026576638221745,Jean Jaurès - Salvador Allende,2023-12-21T06:28:10.418000Z,False,12,1703138448,False,1,1,43,27415665,22402,
48,9,83a12407a969085098c09984ae7b3392,48.857421708072074,2.437578141689301,François Debergue - Croix de Chavaux,2023-12-21T06:28:04.998000Z,True,9,1703138556,True,1,1,57,213911772,31008,['creditcard']
2,21,2c30ff78fb8e28fb3d8b5d188ccaff1c,48.82753962462998,2.2416052222251897,Nationale - Place Jules Guesde,2023-12-21T06:28:05.076000Z,False,2,1703138549,False,1,1,23,129132870,21015,
6,13,5086d6e204e73a68cf7412c7adc80f88,48.790114,2.4025777,Gabriel Péri - Danielle Casanova,2023-12-21T06:28:11.398000Z,True,8,1703138540,True,1,1,20,620403530,44003,['creditcard']
3,45,930b746bb09f1ed84bf66a47f262c746,48.8798926,2.2587671,Route de la Muette - Porte de Neuilly,2023-12-21T06:28:09.815000Z,True,4,1703138814,True,1,1,50,624177860,16122,['creditcard']
4,19,d0453cba0050a3750348d90b8d27f21b,48.79592939432515,2.4261841177940373,Carnot - Pâquerettes,2023-12-21T06:28:11.356000Z,False,11,1703138772,False,1,1,26,631773910,41404,
24,4,b12cdb41cb813c52ad3050b93f4b61f8,48.787553654715644,2.306235730648041,Tertres - Fontaine,2023-12-21T06:28:09.876000Z,False,4,1703138660,False,1,1,28,611152693,22203,
52,9,82be1e73fc5805fc36fdcbce8962a99b,48.8436279,2.4630465,Gare Rer de Fontenay sous Bois,2023-12-21T06:28:10.990000Z,True,4,1703138602,True,1,1,61,235241110,41202,['creditcard']
5,27,d3a2ff3c88a9849b2ee10579018a1364,48.8094458,2.3903009,Raspail - Manufacture des Oeillets,2023-12-21T06:28:02.748000Z,True,8,1703138713,True,1,1,32,613737748,42021,['creditcard']
23,13,85f20fa1ddcb0cb074a830d099dea308,48.86223916006812,2.4435862898826604,Lucie Aubrac - Franklin,2023-12-21T06:28:05.404000Z,True,12,1703138754,True,1,1,36,632007124,31016,['creditcard']
2,26,df01dc24a762fa5b2ad6135745f3eb55,48.791922819921815,2.395057752728462,Place de l'Eglise - Vitry-sur-Seine,2023-12-21T06:28:00.894000Z,False,3,1703138755,False,1,1,28,632086890,44004,
6,15,d01c235cdb4b9097d28e455e2c74be01,48.87451538963655,2.415283620357514,Noisy le Sec - Jean-Baptiste Clément,2023-12-21T06:28:02.096000Z,False,15,1703138565,False,1,1,22,213945171,31708,
15,3,0b38b096fe3eef717615fb15e516c45f,48.8835462,2.4137883,Marcelle - Thalie,2023-12-21T06:28:03.848000Z,True,3,1703138752,True,1,1,20,463297497,35020,['creditcard']
9,13,fdb8945bd7922a97cc52ea4afac6c9a2,48.892663,2.172411,Henri Ste-Claire Déville - Paul Héroult,2023-12-21T06:28:11.504000Z,False,5,1703138279,False,1,1,24,213875650,25003,
20,0,3a05079f559fff0b86fa2bf0921a2f11,48.86431136000005,2.4105210229754443,Louis Lumière - Porte de Bagnolet,2023-12-21T06:28:00.961000Z,False,0,1703138740,False,1,1,20,245187072,20115,
20,10,cb86865b0a02da8981d54f3c56f7e274,48.854898095789295,2.4186685681343083,Paris - Emile Zola,2023-12-21T06:28:11.063000Z,True,4,1703138673,True,1,1,30,129144878,31003,['creditcard']
14,20,12814e3da93b1e24881fef140301edbc,48.83802015441127,2.2460845112800603,Victor Hugo - Galliéni,2023-12-21T06:28:00.834000Z,True,2,1703138667,True,1,1,34,102331767,21008,['creditcard']
16,6,fbaf6d3fa0223f131397ed46900ea8b1,48.875065791004396,2.3316738009452824,Victoire - Chaussée d'Antin,2023-12-21T06:28:11.080000Z,True,3,1703138821,True,1,1,24,593238093,9116,['creditcard']
4,25,f0abcdc6123b221199987eba21c12c12,48.906442763495,2.3584905266762,Proudhon - Président Wilson,2023-12-21T06:28:05.236000Z,False,16,1703138693,False,1,1,30,213952930,32001,
33,7,2f6d0167a95821501cfb9211437e490e,48.84070239213081,2.409667745232582,Square Georges Melies,2023-12-21T06:28:05.344000Z,False,2,1703138525,False,1,1,40,606669250,12154,
30,2,8f275a7310d4ed997c235252009ade6f,48.86741186571367,2.290781380114821,Galilée - Kléber,2023-12-21T06:28:08.534000Z,True,1,1703138649,True,1,1,32,15462236,16008,['creditcard']
30,5,5647d067f510533f3e7b855d4c133ec5,48.865804276686,2.3693370749669,Richard Lenoir - Jean-Pierre Timbaud,2023-12-21T06:28:09.920000Z,True,0,1703138601,True,1,1,36,37791,11039,['creditcard']
18,5,78b0c1c2a9b18f24ef024257370b66be,48.885325169402904,2.316423766314984,Legendre - Dulong,2023-12-21T06:28:09.688000Z,True,3,1703138494,True,1,1,23,50156117,17013,['creditcard']
10,18,599ba9ea3625cc347e892274d793ba38,48.85865170952645,2.303716580234576,Bosquet - Saint-Dominique,2023-12-21T06:28:11Z,True,2,1703138788,True,1,1,28,128890772,7021,['creditcard']
14,27,fc93c6ee4f2c083448ae5eba3e4d47c3,48.86112461407359,2.381299026310444,Chemin Vert - Saint-Maur,2023-12-21T06:28:09.956000Z,True,17,1703138801,True,1,1,45,210744286,11026,['creditcard']
37,20,9b500b459bb4c0aba959a354251c0cf3,48.82837482809675,2.384273745805574,Quai Panhard et Levassor,2023-12-21T06:28:00.949000Z,True,1,1703138782,True,1,1,57,101024234,13050,['creditcard']
39,11,3f9290134bb9cc2bfabaa5ee66f4c1ae,48.881287375060616,2.420119643211365,Square du Théâtre du Garde-Chasse,2023-12-21T06:28:01.784000Z,False,9,1703138287,False,1,1,50,213992316,32604,
15,5,2776291e78769421a5615e5dac2adcc2,48.877951,2.381464,Botzaris - Parc des Buttes Chaumont,2023-12-21T06:28:11.060000Z,False,4,1703138800,False,1,1,20,213694482,19024,
27,5,9efb83e6e67306562f7132a15741192e,48.87525454905335,2.340853661298752,Faubourg Montmartre - La Fayette,2023-12-21T06:28:05.740000Z,True,4,1703138734,True,1,1,35,39799329,9014,['creditcard']
40,23,c8ca1d140dac90e5571c377761f51505,48.844835471244416,2.297508493065834,Joseph Liouville - Croix Nivert,2023-12-21T06:28:11.758000Z,True,4,1703138758,True,1,1,64,101743895,15021,['creditcard']
24,15,cf06f90e57e47828b6a78c15756d6efd,48.883498,2.282015,Place Madeleine Daniélou,2023-12-21T06:28:09.787000Z,False,14,1703138801,False,1,1,42,213691848,17105,
15,0,8601c34d7f1a457da026bb956c81e7c5,48.84512772828,2.3454568170362,Estrapade - Ulm,2023-12-21T06:28:02.852000Z,False,0,1703138649,False,0,0,16,210396518,5012,
30,19,d19e975e803c256106251152a112ba7a,48.8644954,2.3750124,Parmentier - République,2023-12-21T06:28:08.607000Z,True,3,1703138811,True,1,1,50,97677210,11105,['creditcard']
19,1,ccddc3f74a52fc55e5dd7db77b86033a,48.86746195408435,2.405970990657807,Lieutenant Chauré - Etienne Marey,2023-12-21T06:28:02.434000Z,True,1,1703138641,True,1,1,20,875078767,20134,['creditcard']
17,1,90e25ed0c04c5a9c6f6a2538703f48e4,48.848191348584,2.341831654854,Cujas - Saint-Michel,2023-12-21T06:28:07.037000Z,True,1,1703138265,True,1,1,19,35908,5106,['creditcard']
17,9,e4a127d37dccdee756337c7e69893c1d,48.89465,2.381868,Flandre - Alphonse Karr,2023-12-21T06:28:10.865000Z,True,0,1703138325,True,1,1,26,213694069,19008,['creditcard']
9,20,62f3254534266bbed321e50393217e5b,48.816939911292,2.2809894804846,Larmeroux - Baudelaire,2023-12-21T06:28:08.708000Z,False,18,1703138688,False,1,1,29,102338493,21701,
6,16,51ebad3d693a45da3f101384aa4cb879,48.88611466796807,2.356855627529275,Jean-François Lépine - Stephenson,2023-12-21T06:28:11.533000Z,True,7,1703138675,True,1,1,22,54000601,18009,['creditcard']
9,1,212a1e559d18d8b3f08ba8f5360fcdfd,48.875448033960744,2.315508019010038,Messine - Place Du Pérou,2023-12-21T06:28:08.884000Z,True,0,1703138670,True,1,1,12,120827885,8026,['creditcard']
17,9,17febe78152206d85bbe08b065dbb864,48.886591074488,2.2613945603371,Beffroy,2023-12-21T06:28:03.359000Z,True,5,1703138593,True,1,1,26,27362896,22003,['creditcard']
22,11,83dcce208468d87219973e82469ad2ab,48.84520880183234,2.2656840831041336,Molitor - Chardon-Lagache,2023-12-21T06:28:11.416000Z,True,2,1703138793,True,1,1,34,213687140,16038,['creditcard']
9,15,8d718350b29821ee46bbfe1636f9c6be,48.839109,2.4175664,Général De Gaulle - Alouette,2023-12-21T06:28:10.688000Z,True,10,1703138727,True,1,1,26,235599121,41601,['creditcard']
17,8,14aa5a19d30ce4c1724a4a427bb7c144,48.827673823165846,2.320918142795563,Abbé Carton - Plantes,2023-12-21T06:28:09.711000Z,False,4,1703138675,False,1,1,25,213680917,14110,
26,6,3ef1bff58e21edbad3d9f7bee43c7f8c,48.88863669349711,2.3111706599593163,Marie-Georges Picquart - Pereire,2023-12-21T06:28:11.644000Z,False,4,1703138812,False,1,1,32,1057774603,17125,
33,4,56717eb48edd3481e0faa47237f12cdc,48.863875,2.28189,Sablons - Georges Mandel,2023-12-21T06:28:00.769000Z,False,2,1703138760,False,1,1,38,213688462,16108,
18,32,e16a89b03100c1a9a31fc0c2de714216,48.847563015126106,2.433383166790009,Gare RER de Vincennes,2023-12-21T06:28:10.760000Z,False,22,1703138763,False,1,1,51,102749572,43005,
25,21,6b23eb8e0e5648bd5dab1e5c23c0819d,48.8726877314,2.376461327076,Villette - Belleville,2023-12-21T06:28:09.166000Z,True,14,1703138749,True,1,1,48,549876068,19032,['creditcard']
0,29,0ac3cbc87d82ca74faac5280a283acb5,48.85034821320644,2.273029983043671,Théophile Gautier - François Millet,2023-12-21T06:28:07.007000Z,False,2,1703138763,False,1,1,30,390212609,16136,
40,9,06208bdf6da0dab3361163105b85c87f,48.858462881661,2.4147954583168,Edouard Vaillant - Galliéni,2023-12-21T06:28:05.992000Z,False,8,1703138373,False,1,1,49,213936755,31707,
14,10,a38f27b218f46ee5a46557e0beb7d19d,48.88125496379482,2.373463287949562,Marché Secrétan,2023-12-21T06:28:04.030000Z,True,4,1703138789,True,1,1,26,63498079,19022,['creditcard']
9,15,d187ec6f16648953827d9725582dda53,48.895713,2.400571,Quai de l'Aisne - Général Leclerc,2023-12-21T06:28:07.380000Z,True,8,1703138820,True,1,1,27,214019379,35005,['creditcard']
9,39,723ed2a530c8ac46bbeb6d87ede77194,48.858925,2.3789759,Mairie du 11ème,2023-12-21T06:28:11.377000Z,True,0,1703138796,True,1,1,51,39254792,11024,['creditcard']
26,13,23acd467af3c8f63afae56ec0627b2f1,48.82577028927573,2.3210415244102482,Auguste Cain - Jean Moulin,2023-12-21T06:28:06.681000Z,False,11,1703138745,False,1,1,40,648227675,14136,
10,21,2d86c0b00554a00eb8b9b1e7a2c3aab2,48.84351378799,2.3065522313118,Volontaires - Lecourbe,2023-12-21T06:28:09.790000Z,True,2,1703138779,True,1,1,31,82457375,15013,['creditcard']
37,15,e2cface03d9bff4209367541d7ca6cde,48.84442462786544,2.294059172272682,Lakanal - Commerce,2023-12-21T06:28:09.985000Z,True,1,1703138662,True,1,1,53,66491378,15034,['creditcard']
30,2,014cb48626b158d02eb81447060df5fd,48.87372241291653,2.315848097205162,Miromesnil - La Boétie,2023-12-21T06:28:01.204000Z,True,1,1703138396,True,1,1,35,42566291,8025,['creditcard']
45,7,71aded7e7b3842115325ee49a15e6522,48.871624306962985,2.3639265082738348,Marseille - Beaurepaire,2023-12-21T06:28:01.376000Z,False,2,1703138595,False,1,1,55,129032910,10014,
20,15,2290cddc4d410f3ba5a827fa743b1657,48.872988840744,2.3294984212276,Mathurins - Auber,2023-12-21T06:28:11.366000Z,True,7,1703138737,True,1,1,36,237624030,9032,['creditcard']
11,19,ccd737a08df2677cef1e31a5c33a0385,48.850571,2.3471015,Saint-Germain - Thenard,2023-12-21T06:28:07.119000Z,True,1,1703138805,True,1,1,31,647826568,5123,['creditcard']
25,6,eec90e5124bbe51a7eb1635f11ecae64,48.882633484311,2.3448844062122,Square d'Anvers,2023-12-21T06:28:09.095000Z,True,5,1703138455,True,1,1,33,27414841,9005,['creditcard']
11,16,24250132e73a287f6c865014b88d4348,48.83486054775774,2.3445770524322067,Arago - Glacière,2023-12-21T06:28:11.503000Z,True,4,1703138703,True,1,1,27,54000577,13002,['creditcard']
36,16,773aa12714642d2db324733a49a8d0aa,48.81057120969284,2.3842826485633855,Mairie d'Ivry-sur-Seine,2023-12-21T06:28:03.276000Z,False,5,1703138791,False,1,1,53,94250567,42010,
12,17,f54dbdf275d1232aec98e25ef36d9b2a,48.83227829269761,2.3022570088505745,Parc Georges Brassens - Brancion,2023-12-21T06:28:09.937000Z,True,13,1703138799,True,1,1,29,129078200,15046,['creditcard']
39,13,45ed78d1a81f3acb2b888eccfbfff620,48.86921273836114,2.371688821240712,Parmentier - Abel Rabaud,2023-12-21T06:28:11.798000Z,True,1,1703138660,True,1,1,52,54001024,11035,['creditcard']
0,18,f67aa105e8682241b178d9970ec89cdc,48.7672039733195,2.4144977331161503,Place Paul Eluard,2023-12-21T06:28:00.872000Z,True,4,1703138582,True,1,1,19,649888071,46001,['creditcard']
29,4,be5508c978ac002c6468e55accb555fd,48.84309486651855,2.2597770800669053,Exelmans - Michel-Ange,2023-12-21T06:28:09.711000Z,True,2,1703138479,True,1,1,33,82563707,16040,['creditcard']
7,21,17518106bd3e7431c47281ab64709822,48.882976576876565,2.260125767248034,Pierret - Madrid,2023-12-21T06:28:09.868000Z,True,2,1703138728,True,1,1,28,129143598,22006,['creditcard']
13,22,de88c5afccefc010c6c460a1a03d49aa,48.8888,2.296319,Reims - Raymond Pitet,2023-12-21T06:28:05.492000Z,False,5,1703138804,False,1,1,37,213690847,17028,
16,18,18bce01e11505e5771130cfc93b83030,48.819211549234495,2.254007756710053,Saint-Vincent - Verdun,2023-12-21T06:28:11.410000Z,False,6,1703138796,False,1,1,34,102333275,21301,
38,9,fc0c19cb01acd6b45387220e9e0f6a1f,48.864660627935,2.3692265531829,Grand Prieuré - Crussol,2023-12-21T06:28:11.368000Z,False,3,1703138653,False,1,1,49,210746090,11042,
38,16,8b24ed46593b2410a918887466ef965e,48.910388180512,2.3117771744728,Claude Debussy - Marc Bloch,2023-12-21T06:28:04.316000Z,False,9,1703138764,False,1,1,56,54000628,21112,
19,2,937192a3f66b1fd89bb190880a5837ea,48.79387269664978,2.321148812770844,Aristide Briand - Gare de Bagneux,2023-12-21T06:28:11.346000Z,True,1,1703138451,True,1,1,22,640629438,42302,['creditcard']
0,35,1563c1021ce4727eb5640d5032921e79,48.905303858642,2.31055945158,Parc Roger Salengro,2023-12-21T06:28:09.949000Z,False,13,1703138723,False,1,1,35,27415512,21110,
12,7,47464bd539d5c5be08a34fc21c68dafc,48.886785741479684,2.3746193200349808,Seine - Flandre,2023-12-21T06:28:04.544000Z,True,6,1703138526,True,1,1,19,27363362,19029,['creditcard']
7,23,5d72fe66321350e4ac6aaca586fae6c5,48.886393679436,2.3865414544355,Hautpoul - Jean Jaurès,2023-12-21T06:28:11.197000Z,True,12,1703138778,True,1,1,32,6399,19016,['creditcard']
8,11,92a76a55ecccb996217e600e7fcc71a4,48.877141208359035,2.4461565166711807,Chemin Vert - Fraternité,2023-12-21T06:28:11.540000Z,False,10,1703138620,False,1,1,20,1062206433,32302,
10,23,37bcd0ffd81d5c43f790ccef84cce304,48.88467368538326,2.380039058625698,Laumière - Petit,2023-12-21T06:28:03.984000Z,True,6,1703138817,True,1,1,34,54000609,19013,['creditcard']
16,10,8ad2062f7428ffb3221bc38035341327,48.909423010092326,2.3584435880184174,Wilson - Métallurgie,2023-12-21T06:28:11.760000Z,False,5,1703138801,False,1,1,28,213957917,32003,
2,17,dbc675399fae397f99c2ab250dcd9140,48.90379820774301,2.3187401890754704,Madame de Sanzillon - Mozart,2023-12-21T06:28:11.624000Z,True,5,1703138508,True,1,1,22,54000626,21104,['creditcard']
20,7,ba220c2f91c92b4ed1a31315fbf59d1d,48.8577967,2.3192664,Mairie du 7ème,2023-12-21T06:28:00.864000Z,False,3,1703138777,False,1,1,27,82253759,7102,
15,16,45a6afb62b37136822c20fc749912056,48.852191909696,2.3740932717919,Charonne - Faubourg Saint-Antoine,2023-12-21T06:28:11.974000Z,True,4,1703138820,True,1,1,34,55664548,11004,['creditcard']
11,17,2ef58c63ca426a656a16e9fb47a70ea1,48.84288183896324,2.222245037555695,Gare Routière de Saint Cloud,2023-12-21T06:28:11.950000Z,True,12,1703138659,True,1,1,31,213868408,22101,['creditcard']
16,10,6f88ea4da712ac28d99e44f06154901a,48.799824,2.328171,Gare Arcueil - Cachan,2023-12-21T06:28:08.680000Z,True,7,1703138720,True,1,1,26,214134714,42301,['creditcard']
36,13,08cd405dc9467f0d86e2b6717e1382d3,48.855628721101,2.3256602883339,Raspail - Bac,2023-12-21T06:28:00.576000Z,True,2,1703138705,True,1,1,52,100859941,7005,['creditcard']
20,10,e186587b3123013458d1822d8232789d,48.814280450380224,2.3410347104072575,Gare RER de Gentilly,2023-12-21T06:28:00.950000Z,False,5,1703138693,False,1,1,30,214139374,42504,
0,0,0b9d4b132376128ea02f1356f3c379ab,48.868895162679,2.3919824145635,Boyer - Ménilmontant,2023-12-21T06:28:11.031000Z,False,0,1526882385,False,0,0,19,213702608,20121,
2,29,478589d5f96e785e1c7a5ebcff4774aa,48.82124248401006,2.2511002421379094,Aristide Briand - Place de la Résistance,2023-12-21T06:28:01.120000Z,True,18,1703138807,True,1,1,25,102335085,21302,['creditcard']
13,12,e0885c8fbacda3f822e6f110796f47eb,48.8184945213025,2.3744174838066106,Place Jean Ferrat,2023-12-21T06:28:04.840000Z,False,5,1703138809,False,1,1,25,559507144,42015,
15,5,27f24e910c5e5808753e43fb433da652,48.867362,2.396222,Villiers de l'Isle Adam - Pyrénées,2023-12-21T06:28:08.321000Z,False,4,1703138804,False,1,1,20,213700358,20111,
21,2,88ea02c860f8968afc61c3bdf7fa50c2,48.87778639599673,2.337429821491241,Saint Georges - d'Aumale,2023-12-21T06:28:11.720000Z,True,0,1703138331,True,1,1,23,468843711,9021,['creditcard']
18,24,30df735431c23fca3387117b33edce2b,48.85670169739857,2.445072233676911,Stalingrad - Désiré Chevalier,2023-12-21T06:28:09.904000Z,False,21,1703138770,False,1,1,42,129151834,31010,
8,41,522c47b8d0ec09ad47516c94b4b3af99,48.82176874759649,2.3688706755638127,Porte d'Ivry,2023-12-21T06:28:09.628000Z,False,15,1703138818,False,1,1,50,82432573,13041,
1,22,9b573ec174a6c3c24292ce8c7b522c4f,48.80476007936134,2.4180373930262093,Victor Hugo - Ecoles,2023-12-21T06:28:11.771000Z,True,13,1703138713,True,1,1,25,650091839,41402,['creditcard']
13,12,809068ab0c9f09c33ee62418690d73ed,48.84571672113014,2.4272462725639348,Hôpital Bégin,2023-12-21T06:28:09.762000Z,True,5,1703138734,True,1,1,26,362869414,43003,['creditcard']
46,4,ed5f3cc959f86035215f4da93d21b93e,48.868831082877,2.3809862136841,Belleville - Couronnes,2023-12-21T06:28:11.827000Z,True,4,1703138600,True,1,1,50,129121741,20039,['creditcard']
2,15,45e42f493a7432db593b8d397c00b8ab,48.846171461187,2.3793068155646,Charenton - Diderot,2023-12-21T06:28:06.900000Z,True,5,1703138286,True,1,1,18,49859500,12009,['creditcard']
18,16,e913cb0d86c2ad44b1c227214b67335f,48.888537048944826,2.3561610281467438,Stephenson - Doudeauville,2023-12-21T06:28:10.684000Z,True,8,1703138789,True,1,1,36,42743053,18012,['creditcard']
26,31,3894522337ae96decb2834df121c0b82,48.868397,2.3678933,Jules Ferry - Faubourg du Temple Paris,2023-12-21T06:28:07.815000Z,True,1,1703138789,True,1,1,58,49368561,11036,['creditcard']
16,13,3c7c067b5bac73d5215d3d88b5a6f1cd,48.88879,2.3785,Place de l'Édit de Nantes,2023-12-21T06:28:07.440000Z,True,8,1703138760,True,1,1,30,213699913,19125,['creditcard']
8,42,fa4f05e4db4a26862574e62b0f424b05,48.88873214926474,2.2881576418876652,Anatole France - Louise Michel,2023-12-21T06:28:01.516000Z,True,14,1703138750,True,1,1,50,378626842,23009,['creditcard']
26,9,e43e538651aacb7e828a30017d503a79,48.86446597201,2.3660597205162,Temple - Jean-Pierre Timbaud,2023-12-21T06:28:08.964000Z,False,0,1703138593,False,1,1,36,15298647,11040,
15,11,51802b48685ec3506c95609b9babbf9f,48.83091743371036,2.2790706530213356,Guynemer - Séverine,2023-12-21T06:28:11.213000Z,True,3,1703138716,True,1,1,26,933214552,21313,['creditcard']
26,35,0d4e1bab912f432afd3198c04735685a,48.85337548426,2.3828620836139,Jean Macé - Faidherbe,2023-12-21T06:28:10.883000Z,True,2,1703138802,True,1,1,63,210090269,11007,['creditcard']
23,7,8d3e4568cdcb9e5ff191029b862bba6a,48.89432034553156,2.432552274419542,Gaston Roussel - Commune de Paris,2023-12-21T06:28:09.861000Z,True,7,1703138784,True,1,1,30,376664868,32303,['creditcard']
28,7,725d29d84f7137c5578500a657301181,48.87660163459077,2.3129771277308464,Bienfaisance - Place de Narvik,2023-12-21T06:28:00.976000Z,False,5,1703138760,False,1,1,36,205955605,8035,
2,13,fb312eb426443a0fefa4f36dfd068b60,48.842647778701,2.3861649278137,Montgallet - Charenton,2023-12-21T06:28:09.308000Z,True,3,1703138795,True,1,1,16,27414945,12027,['creditcard']
13,11,26c2ac5812042b875b3eb4b926bcd75d,48.823933787309,2.2606918215752,Place Jacques Madaule,2023-12-21T06:28:11.350000Z,False,2,1703138797,False,1,1,25,38263504,21305,
13,3,8882402df59791a07752d171af7345b9,48.868976638826,2.3623438552022,Bourse du Travail,2023-12-21T06:28:07.240000Z,True,0,1703138599,True,1,1,17,338824395,10011,['creditcard']
20,8,76240150d4ee35e563b890f0721b592c,48.85528017533187,2.337574325501919,Jacques Callot - Mazarine,2023-12-21T06:28:09.965000Z,True,0,1703138775,True,1,1,28,66491370,6013,['creditcard']
18,23,80e7409eb7fe7c76c43c8a4d73d4cb73,48.871379874257,2.3698963836667,Parmentier - Hôpital Saint-Louis,2023-12-21T06:28:10.012000Z,True,1,1703138565,True,1,1,43,66491392,10113,['creditcard']
1,28,a70f5619affa1b57b55552979476a5e6,48.87866794788021,2.2420343756675725,Richard Wallace - Place du 8 Mai 1945,2023-12-21T06:28:06.059000Z,True,9,1703138764,True,1,1,30,353462947,28001,['creditcard']
25,0,9c085b9301af6eb9d127e14afbfdbfd1,48.859403,2.276522,Faustin Hélie - Desbordes-Valmore,2023-12-21T06:28:00.951000Z,False,0,1703138354,False,1,1,33,213688824,16111,
14,7,d243689d6ca258a5f5c454d856bde33a,48.85291595620935,2.352195717394352,Quai aux Fleurs - Pont Saint-Louis,2023-12-21T06:28:11.070000Z,True,2,1703138690,True,1,1,21,27269170,4003,['creditcard']
27,6,50c909bb60eab69572fd6530b3b3c096,48.846454,2.415514,Porte de Vincennes,2023-12-21T06:28:10.646000Z,False,5,1703138798,False,1,1,33,27071684,12115,
12,8,6c79e98afe3bff87a4889679567d3449,48.888013281448,2.3737595955229,Flandre - Riquet,2023-12-21T06:28:10.038000Z,True,0,1703138788,True,1,1,21,66491404,19005,['creditcard']
49,9,4d33a2fd0a030ce0bbf6bb191311f031,48.8242469,2.3186306,Place de la Porte de Châtillon,2023-12-21T06:28:09.789000Z,True,6,1703138379,True,1,1,59,652120758,14021,['creditcard']
5,18,86245c11064e6c59600ed1a72ca437b7,48.850500564921,2.3890856287864,Montreuil - Gonnet,2023-12-21T06:28:02.052000Z,False,2,1703138820,False,1,1,24,501318622,11115,
16,31,d0ea021404c44b9d7c69aeffdfece603,48.85147910413369,2.296709530055523,Dupleix - du Guesclin,2023-12-21T06:28:10.013000Z,True,4,1703138755,True,1,1,47,66491393,15025,['creditcard']
8,8,d46509da3786c640cb7abb6847e3b8c7,48.844291,2.3896481,Montgallet - Reuilly,2023-12-21T06:28:00.983000Z,True,4,1703138819,True,1,1,16,323486248,12013,['creditcard']
37,6,5613abda7bf456dc93404430dbcdb904,48.857202661803,2.3152771219611,Varenne,2023-12-21T06:28:11.881000Z,True,1,1703138640,True,1,1,47,82337423,7015,['creditcard']
41,5,e197f2f4c1946e4ec4ab4834b612aec1,48.878438631226516,2.297727763652802,Place des Ternes.,2023-12-21T06:28:07.253000Z,True,2,1703138316,True,1,1,46,341388492,17045,['creditcard']
16,7,4d6b7bfa6acf7a9fd0426f9c4598a5c1,48.89484799296163,2.4188338592648506,Ancien Canal - Hélène Brion,2023-12-21T06:28:00.487000Z,True,5,1703138580,True,1,1,23,1062223873,35018,['creditcard']
3,13,27c2d6c0f45eca5f901bd7ace73cd681,48.886674849730184,2.3613611608743668,Departement - Pajol,2023-12-21T06:28:11.395000Z,False,10,1703138794,False,1,1,19,49085250,18110,
8,14,cb13dedb8faacca75a1005939ccf9a9d,48.85218705621,2.3890301585197,Boulets - Voltaire,2023-12-21T06:28:11.816000Z,False,2,1703138800,False,1,1,24,478952881,11009,
36,19,9fb2c6e479a17058ca747ba526e4dfa6,48.894155633419,2.3143893107772,Fragonard - Porte de Clichy,2023-12-21T06:28:10.036000Z,False,1,1703138507,False,1,1,56,66491401,17011,
1,13,460548fb230dca71767d0e3a3bb68cc9,48.849268481958,2.3704585433006,Lacuée - Lyon,2023-12-21T06:28:03.220000Z,True,4,1703138810,True,1,1,16,39626277,12002,['creditcard']
9,22,7df813454e9d096e9b681b05d95376fe,48.878772242510465,2.270772233605385,Jardin d'Acclimatation,2023-12-21T06:28:10.679000Z,True,2,1703138675,True,1,1,33,470807791,16121,['creditcard']
20,18,b143c2202a98200b5593575c25a12aac,48.83920384329242,2.320883944630623,Gare Montparnasse - René Mouchotte,2023-12-21T06:28:01.809000Z,True,9,1703138690,True,1,1,39,82445192,14117,['creditcard']
20,6,8849744b960000fce78be23da961afa2,48.8932644350857,2.4126765131950383,Charles de Gaulle - Jean Lolive,2023-12-21T06:28:03.583000Z,False,2,1703138704,False,1,1,26,339797666,35014,
31,8,482e8838210cb3275d79f9d358d36550,48.893479576183,2.2775253653526,Paul Vaillant Couturier - Chaptal,2023-12-21T06:28:11.369000Z,True,2,1703138481,True,1,1,39,568135465,23001,['creditcard']
3,19,8fb78a943a8de0988762c5ffa5ca9655,48.85716405838368,2.422847449779511,Place de la Fraternité,2023-12-21T06:28:10.932000Z,True,18,1703138671,True,1,1,22,129152818,31709,['creditcard']
19,2,3603e235012ae327335a8e4461486b76,48.834001935501,2.3703888058662,Vincent Auriol - Louise Weiss,2023-12-21T06:28:11.637000Z,False,2,1703138718,False,1,1,22,567884788,13049,
38,5,1a227b9467b91fe855cd55071b49c57a,48.80893199114179,2.3349460959434514,Gare de Laplace,2023-12-21T06:28:09.928000Z,True,5,1703138611,True,1,1,43,214102967,41102,['creditcard']
12,9,bc3731be62f9914a887f9516b315c83d,48.881804409079656,2.2921088710427284,Bayen - Pereire,2023-12-21T06:28:11.526000Z,False,3,1703138473,False,1,1,22,54000597,17037,
12,2,ca9c91a3e9e0eedb5b7199ef41896e1d,48.88339733854529,2.371074522980134,Quai de la Loire - Jean Jaurès,2023-12-21T06:28:05.056000Z,True,1,1703138642,True,1,1,16,102319838,19004,['creditcard']
21,47,2b5f17fba9f9b98be89041aa0992a91f,48.84395729494058,2.3790882155299187,Gare de Lyon - Roland Barthes,2023-12-21T06:28:08.673000Z,False,9,1703138780,False,1,1,68,82423726,12106,
4,62,c440d5f033c71b75a5390fdc670f7643,48.87525984132485,2.249415814876557,Route de Sèvres - Porte de Bagatelle,2023-12-21T06:28:06.012000Z,True,3,1703138813,True,1,1,66,652192395,16124,['creditcard']
23,4,4c87601ee15ead2a7a475813822c3366,48.872933,2.309796,Commandant Rivière,2023-12-21T06:28:10.982000Z,True,2,1703138706,True,1,1,27,49403716,8033,['creditcard']
12,22,050c777552247f22a0333b0f1c69bae8,48.88713901475306,2.314494143994255,Gare de Pont-Cardinet,2023-12-21T06:28:04.656000Z,True,21,1703138773,True,1,1,34,129091653,17017,['creditcard']
30,17,7df77f9738f0852d4f434eb218cdfe41,48.90390751882016,2.3830059170722966,Bordier - Félix Faure,2023-12-21T06:28:11.311000Z,False,13,1703138818,False,1,1,48,571923059,33003,
30,9,b932c4981db56713f5cdf8f0bd6812b6,48.84718551002347,2.3534858599305153,Jussieu - Fossés Saint-Bernard,2023-12-21T06:28:11.449000Z,True,4,1703138596,True,1,1,39,54000544,5021,['creditcard']
24,2,b74512b9979ac7824c734c07bbd48fc4,48.851602665222,2.3984030470379,Charonne - Avron,2023-12-21T06:28:10.039000Z,True,1,1703138533,True,1,1,27,66491405,20043,['creditcard']
11,22,96a76f04f00a6169b93feb87cca3493c,48.90812110228388,2.378623187541962,Félix Faure - Sadi Carnot,2023-12-21T06:28:11.642000Z,True,19,1703138485,True,1,1,33,54000635,33009,['creditcard']
49,8,9045305884a8b94dd89e67993cc8828d,48.84756654526,2.3025691509247,Square Cambronne,2023-12-21T06:28:11.168000Z,True,4,1703138466,True,1,1,59,82450803,15010,['creditcard']
18,5,a472c5c568e8bf512f007046421bde57,48.890097168851746,2.317377626895905,Lemercier - Cardinet,2023-12-21T06:28:03.816000Z,False,3,1703138682,False,1,1,24,54000599,17111,
9,15,f92c2092ad97c514670795992a513687,48.868807,2.185428,18 juin 1940 - Buzenval,2023-12-21T06:28:09.220000Z,False,11,1703138788,False,1,1,25,1062179194,25005,
21,6,7ed7da9dbe8eb6d68a9280817ef64fdc,48.89835196548483,2.386150136590004,Porte de la Villette,2023-12-21T06:28:11.755000Z,True,5,1703138628,True,1,1,27,27278603,19115,['creditcard']
19,3,4a279a72d89c67bdfea32567e15d81f0,48.83617286014242,2.319392143923804,Ouest - Château ,2023-12-21T06:28:10.782000Z,True,1,1703138786,True,1,1,23,13497763,14034,['creditcard']
34,5,240599c38090d4aeec006a2ec81194f7,48.91835629408464,2.3523425683379173,Place aux Étoiles,2023-12-21T06:28:01.456000Z,True,1,1703138775,True,1,1,40,653042442,32010,['creditcard']
17,1,4d67d47bc51f094cdc80cef25cb5296f,48.8643275,2.2724174,Flandrin - Henri Martin,2023-12-21T06:28:11.918000Z,True,0,1703138588,True,1,1,18,49807107,16018,['creditcard']
41,18,7e36c938c73f88c7802fbb47008c7a5e,48.852888670365,2.3891476408096,Alexandre Dumas - Voltaire,2023-12-21T06:28:10.742000Z,False,7,1703138811,False,1,1,59,82417874,11102,
9,21,cf2845fd7cdf82c5822101739d3598cf,48.827817291597846,2.3705490678548813,Jean Colly - Tolbiac,2023-12-21T06:28:11.028000Z,True,14,1703138749,True,1,1,36,378648513,13045,['creditcard']
27,22,d2ff4e868f7aeb9639f2ae96c6e83512,48.832308,2.38637,Pirogues de Bercy - Libourne,2023-12-21T06:28:11.946000Z,True,2,1703138798,True,1,1,49,210747224,12034,['creditcard']
14,11,a06d0b8d58b7312e6952148b677d9a0d,48.81240466867336,2.3617091774940495,Place Jean-Baptiste Clément,2023-12-21T06:28:02.112000Z,False,8,1703138719,False,1,1,25,85165045,42707,
16,10,d585f0eeb4e482d9691e21e1e2d53095,48.870797375639214,2.2277003154158592,Verdun - Place Henri IV,2023-12-21T06:28:08.536000Z,True,4,1703138789,True,1,1,26,82571110,21502,['creditcard']
23,18,f2c38d4dc146bdbc7ce0b998d16f85b3,48.839988788912,2.4005256685521,Picpus - Louis Braille,2023-12-21T06:28:06.080000Z,True,11,1703138734,True,1,1,44,129059516,12038,['creditcard']
33,0,5bbe3ddccd0a479b991ea8fbb9ec9695,48.8479394142243,2.2608396783471107,Porte d'Auteuil,2023-12-21T06:28:03.864000Z,False,0,1703138291,False,1,1,33,27363103,16034,
19,1,39f7a9df157d3880003cc0d4a8fdf993,48.825030852925,2.3264128693982,Sarrette - Général Leclerc,2023-12-21T06:28:09.727000Z,True,0,1703138805,True,1,1,22,27415179,14019,['creditcard']
11,15,7678b523b0deb45d09512d7129af7355,48.852566752033766,2.403928068708116,Réunion - Avron,2023-12-21T06:28:11.098000Z,False,11,1703138711,False,1,1,26,85145704,20132,
26,33,330a64235b680e966b0d2fba023bc75d,48.851355779579,2.369220033288,Bastille - Biscornet,2023-12-21T06:28:05.464000Z,True,1,1703138688,True,1,1,62,84986959,12001,['creditcard']
22,3,c60e64b99a2e67f10e36128ac8ba9735,48.8701796,2.3967273,Square des Saint-Simoniens,2023-12-21T06:28:11.299000Z,False,3,1703138750,False,1,1,25,26958435,20119,
15,6,4ca58fd78dc9d3a72786b6ab86d4f643,48.88650687534334,2.3938155401308374,Petit - Manin,2023-12-21T06:28:11.191000Z,True,4,1703138592,True,1,1,22,6385,19019,['creditcard']
18,19,08511e1c657595335e7abecedf7aeaa5,48.82663907252554,2.4059280753135686,Place des Marseillais,2023-12-21T06:28:00.752000Z,True,8,1703138727,True,1,1,37,82550925,42207,['creditcard']
20,15,0630c12063bbf894034eea8afa6f7277,48.88115023337061,2.480436824262142,Gare Rosny-Bois-Perrier,2023-12-21T06:28:01.844000Z,True,11,1703138718,True,1,1,36,1062192012,31103,['creditcard']
2,22,c890de5a4ae713ea20587509c5883323,48.888912037698766,2.195632159709931,Chanzy - Sud-Est,2023-12-21T06:28:07.520000Z,False,12,1703138762,False,1,1,25,475524450,92003,
37,3,51c8b18ffcb64a56b46425c69aa6c30d,48.845665,2.355653,Jussieu - Guy de la Brosse,2023-12-21T06:28:11.212000Z,False,2,1703138800,False,1,1,40,653048150,5119,
3,21,3ed17c508b4538fcf203e3114082ac0c,48.90271566255436,2.3933270573616032,Gabrielle Josserand - Edouard Vaillant,2023-12-21T06:28:04.088000Z,True,3,1703138780,True,1,1,25,126175087,35003,['creditcard']
12,20,e0a40ad9762d08d8458b3e099bb8307a,48.851904891406384,2.347842156887055,Square René Viviani - Montebello,2023-12-21T06:28:00.967000Z,True,1,1703138800,True,1,1,34,653050378,5121,['creditcard']
17,5,78e3071882b1e611eecbcd1724458d34,48.89206174403158,2.4091735482215886,Jean Lolive - Parc Stalingrad,2023-12-21T06:28:01.236000Z,True,4,1703138520,True,1,1,22,244400797,35009,['creditcard']
25,6,6326b14961097287778d5449f4f5a5fb,48.878199928923124,2.2992860188665043,Courcelles - Place des Ternes,2023-12-21T06:28:04.384000Z,False,3,1703138778,False,1,1,31,129001431,8055,
42,19,ad02173862ed52d509d3b582cba81519,48.845847561366,2.3017574474216,Cambronne - Villa Croix Nivert,2023-12-21T06:28:07.229000Z,False,1,1703138812,False,1,1,62,82455731,15011,
26,7,a4ea97a5b4ecaee85ddf51406dc59412,48.903281401126755,2.368072383105755,Victor Hugo - Magasins Généraux,2023-12-21T06:28:03.260000Z,False,4,1703138367,False,1,1,34,473204291,33001,
20,20,52927eb9fdf2015b999d3ec69d474291,48.875674400851,2.3265598341823,Gare Saint-Lazare - Cour du Havre,2023-12-21T06:28:01.596000Z,True,7,1703138747,True,1,1,45,394404659,8002,['creditcard']
2,26,5cf3b0f1e9826108771f269dfce91df2,48.905169868129036,2.3023840785026555,Guichet - Jean Jaurès,2023-12-21T06:28:11.958000Z,False,7,1703138803,False,1,1,28,406806401,21109,
7,8,49b64991a5aead64693a230a48917b50,48.83976676978202,2.347510904073715,Claude Bernard - Arbalète,2023-12-21T06:28:11.757000Z,False,4,1703138768,False,1,1,17,653044270,5114,
11,18,2752924d95aa4e9666f9bb3b348c5510,48.858102885107,2.3004072904587,Rapp - Place du Général Gouraud,2023-12-21T06:28:11.463000Z,True,4,1703138764,True,1,1,31,54000550,7024,['creditcard']
24,3,098a11984f22c62caa25ce6e07cd5f42,48.84116092896631,2.32459545135498,Edgar Quinet - Gaité,2023-12-21T06:28:11.509000Z,True,1,1703138561,True,1,1,27,54000582,14001,['creditcard']
11,12,eeb22543303375548997292b27e62bde,48.85593932186797,2.441531717777252,Place Carnot,2023-12-21T06:28:11.948000Z,True,1,1703138628,True,1,1,25,217235307,31012,['creditcard']
30,21,fe560dae7ea818b32be511400844fcf1,48.824407,2.418455,Gravelle - Route du Bac,2023-12-21T06:28:02.592000Z,True,10,1703138654,True,1,1,51,210748575,12126,['creditcard']
56,4,0f4c114024db04bae656132fbb9ff0c0,48.8685433,2.3600032,René Boulanger - Lancry,2023-12-21T06:28:10.675000Z,True,1,1703138653,True,1,1,62,218903767,10001,['creditcard']
40,2,e6f6be09059575bf467b799b1595183f,48.86218070933143,2.2617871686816216,Ceinture du Lac Inferieure - Saint-Cloud,2023-12-21T06:28:10.584000Z,True,2,1703138291,True,1,1,42,129086648,16129,['creditcard']
24,4,3f12591c7b9417fc704044046aafc68e,48.8949922,2.4253764,Anatole France - Jean Lolive,2023-12-21T06:28:02.971000Z,True,3,1703138590,True,1,1,28,217572769,35019,['creditcard']
14,9,9f9584cd914c3f7c44e1d972a8403035,48.83329880233322,2.3173383995890617,Boyer-Barret - Raymond Losserand,2023-12-21T06:28:11.949000Z,True,5,1703138563,True,1,1,23,214298601,14104,['creditcard']
12,9,681dc5faed71ff141b9538db0677139b,48.87195626635528,2.384981390278095,Piat - Parc de Belleville,2023-12-21T06:28:07.070000Z,False,9,1703138658,False,1,1,21,129125489,20113,
24,7,b62e4465312c4da84a91a204b9f8fd8c,48.84930687084088,2.417949736118317,Lagny - Joffre,2023-12-21T06:28:00.776000Z,False,4,1703138729,False,1,1,31,214122655,41604,
13,3,7b353ebac8ff456e4ef3f00a7cdaff49,48.881077914129,2.3095492646098,Parc Monceau,2023-12-21T06:28:07.916000Z,False,1,1703138788,False,1,1,18,15461933,17018,
43,5,8d249a46e5837f8bfcc93e5554e19b97,48.8227639,2.3249313,Porte d'Orléans,2023-12-21T06:28:11.728000Z,True,1,1703138772,True,1,1,48,43155320,14018,['creditcard']
4,19,75c417c121c5c1d315ba5132048763be,48.83629973941847,2.3104464635252953,Place Falguière,2023-12-21T06:28:11.078000Z,False,12,1703138416,False,1,1,23,82458977,15017,
18,10,7fd490acafba9293944d4820c8aa93e9,48.841486,2.430793,Vignerons - Minimes,2023-12-21T06:28:11.643000Z,True,6,1703138615,True,1,1,29,214146056,43006,['creditcard']
22,29,3bbfdd931d250dcdfe674240bf4405b0,48.850785261674964,2.2871585190296173,Emeriau - Place de Brazzaville,2023-12-21T06:28:08.421000Z,True,9,1703138760,True,1,1,51,129077035,15029,['creditcard']
22,4,71308f42372767bb03fbb56021e1f5b1,48.852060203583,2.3017993569374,Ecole Militaire - Place Joffre,2023-12-21T06:28:11.944000Z,True,1,1703138484,True,1,1,26,476053320,7111,['creditcard']
27,0,11761ede90bacb1f3a79927ddbba1213,48.84369030864,2.3657163977623,Gare d'Austerlitz - Quai Saint-Bernard,2023-12-21T06:28:08.844000Z,True,0,1642540077,True,0,0,27,35196898,13104,['creditcard']
29,4,4e270e7543dbc1e3af8ee9cbe22b82d3,48.850310432924466,2.345015835298588,Sommerard - Saint-Jacques,2023-12-21T06:28:11.049000Z,True,1,1703138768,True,1,1,34,15308782,5002,['creditcard']
11,7,7321eda6529f6da9b6df36a4d1074102,48.884146759782,2.341845408082,Tardieu - Chappe,2023-12-21T06:28:11.836000Z,False,4,1703138814,False,1,1,18,216473073,18005,
9,4,188f9c5c9d2752bb8e66481ce5d8044d,48.87397217237368,2.348388757504776,Petites Ecuries - Faubourg Poissonnière,2023-12-21T06:28:09.750000Z,False,1,1703138550,False,1,1,17,37521,10005,
2,32,1829d385aa95e05208441b515b317fbc,48.839794573906,2.3826066032052,Gare de Bercy,2023-12-21T06:28:05.027000Z,True,13,1703138794,True,1,1,35,82421994,12024,['creditcard']
9,7,f07adebc198039365b1aba19ad1a65e8,48.8867667,2.326228,Pierre Ginier - Clichy,2023-12-21T06:28:10.677000Z,True,5,1703138468,True,1,1,16,27033125,18045,['creditcard']
37,6,b7178daae0d22253ae3831c6d4044eeb,48.883474535757,2.326493114233,Batignolles - Place de Clichy,2023-12-21T06:28:09.888000Z,True,1,1703138714,True,1,1,47,215495494,8012,['creditcard']
3,17,04d896767d79f9d0b9d16a0f3d33eb33,48.89104123261663,2.340014585442034,Francoeur - Marcadet,2023-12-21T06:28:11.048000Z,True,15,1703138675,True,1,1,20,129103849,18020,['creditcard']
17,10,1f74ab81295c9ceed1a5c6933aee68bc,48.87033205312931,2.388777695596218,Henri Chevreau - Couronnes,2023-12-21T06:28:07.608000Z,True,9,1703138758,True,1,1,27,1057009034,20136,['creditcard']
15,31,ca20583d5caa1989886730816f97399d,48.839061952159746,2.3499782010912895,Pascal - Claude Bernard,2023-12-21T06:28:09.081000Z,True,4,1703138527,True,1,1,49,82334007,5026,['creditcard']
7,29,56c2da4066fd35120072927ac72d88b2,48.844182577315,2.3640366643667,Place Valhubert,2023-12-21T06:28:09.023000Z,True,4,1703138626,True,1,1,37,653046029,5116,['creditcard']
22,3,d69a9408f670d0ab0a5ad7db111b1eb4,48.87352990026496,2.303444892168045,Lamennais - Washington ,2023-12-21T06:28:00.556000Z,False,1,1703138748,False,1,1,26,216039437,8102,
11,4,53b575bc33e915c4fcf5142e80eeb3f4,48.86926,2.289918,Lauriston - Copernic,2023-12-21T06:28:11.018000Z,False,3,1703138732,False,1,1,19,213686196,16006,
3,18,da06901ff9c1f080a4e8d1819ed38520,48.8258020742942,2.2487989068031315,Pierre Grenier - Pont de Billancourt,2023-12-21T06:28:11.973000Z,False,12,1703138618,False,1,1,21,129130397,21013,
21,30,56c7339743765c3a76dcbdcd16d16e82,48.83671783466264,2.283664085650799,Vasco de Gama,2023-12-21T06:28:11.975000Z,False,5,1703138787,False,1,1,54,41566122,15055,
0,0,4d36ffe89447b54557da625279984139,48.88666162207,2.2843274474144,Bineau - Louise Michel,2023-12-21T06:28:11.641000Z,False,0,1688614813,False,0,0,0,54000634,23011,
27,20,f9ee1ec48f2884724409533079df826d,48.90782845483013,2.307887971401215,Professeur René Leriche - Général Leclerc ,2023-12-21T06:28:00.884000Z,True,4,1703138719,True,1,1,50,419381597,21111,['creditcard']
29,7,c97c5cffb3759b0598a9d8ac07c3f8da,48.833218027457846,2.2677567601203923,Bara - Henri Farman,2023-12-21T06:28:10.794000Z,False,4,1703138527,False,1,1,36,434419150,21308,
27,17,e8da051a0e5bc7279c17af17edac7933,48.92034156960326,2.3438543826341625,Carrefour Pleyel,2023-12-21T06:28:07.968000Z,True,9,1703138645,True,1,1,36,653046369,32012,['creditcard']
13,22,343827d04125679d3aa87c61f025e562,48.89587780769155,2.3226776719093327,Navier - Epinettes,2023-12-21T06:28:11.524000Z,True,14,1703138578,True,1,1,36,54000595,17007,['creditcard']
21,9,d3dc2fee037a699450ab092e9bee82c0,48.85345855607243,2.3772463581947094,Ledru-Rollin - Charonne,2023-12-21T06:28:05.176000Z,False,1,1703138622,False,1,1,32,426772876,11114,
6,20,3fa13c4ecf3f1422f7308f52233b3452,48.8703459,2.3842214,Parc de Belleville - Julien Lacroix,2023-12-21T06:28:11.906000Z,False,15,1703138797,False,1,1,26,74620630,20040,
7,6,f4e9ed48851ec3d48d05780e2478330f,48.876156054271,2.3609149083206,Gare de l'Est - Verdun,2023-12-21T06:28:11.825000Z,False,2,1703138667,False,1,1,14,129036192,10023,
4,31,a6533a9ecdee68f1a242f9684412591b,48.844867319554,2.3825789350545,Charenton - Place du Col Bourgoin,2023-12-21T06:28:02.760000Z,True,5,1703138742,True,1,1,35,82421013,12011,['creditcard']
8,17,5021fe96eef9583e4fb9583d94017826,48.90245471981591,2.3128929734230046,Morice - Général Leclerc,2023-12-21T06:28:07.819000Z,False,2,1703138371,False,1,1,25,129134084,21105,
37,8,b0c0a9b0207679491ab4df65860392ad,48.874330377560476,2.3621229082345963,Lucien Sampaix - Récollets,2023-12-21T06:28:11.249000Z,True,3,1703138665,True,1,1,46,427678168,10015,['creditcard']
23,12,c81a55e172104b19b387bfd4a02bab9c,48.823316,2.354336,Place Jean Delay,2023-12-21T06:28:11.276000Z,False,3,1703138814,False,1,1,35,210754072,13026,
40,6,b91a0338e087aba86af02593847f0d0b,48.8984179,2.2791311,Pont de Levallois-bécon ,2023-12-21T06:28:07.820000Z,True,1,1703138747,True,1,1,50,419991048,23002,['creditcard']
5,22,cebc676249dd66560e19c0cf9e6aafea,48.84487893836502,2.2905756533145905,Place Violet,2023-12-21T06:28:01.952000Z,False,11,1703138779,False,1,1,30,357409723,15033,
17,13,8f47c42da61baceafe1d4fcb4aa40b1e,48.82890454823947,2.31648076325655,Jonquoy - Didot,2023-12-21T06:28:11.077000Z,False,8,1703138744,False,1,1,30,963786819,14130,
25,2,31898cae6430324c73533caedfbb72b6,48.8525288,2.4877332,Place du Général de Gaulle,2023-12-21T06:28:10.786000Z,True,2,1703138507,True,1,1,28,976762284,41207,['creditcard']
24,5,5d71e734c3ba190fca3cc0e653b69597,48.858942986179,2.3314182047146,Quai Voltaire,2023-12-21T06:28:11.461000Z,True,2,1703138783,True,1,1,32,54000548,7006,['creditcard']
37,13,a6f79ccace6709222f6568835e596aea,48.832294,2.3674523,Dunois - Clisson,2023-12-21T06:28:11.082000Z,True,4,1703138707,True,1,1,51,224598098,13043,['creditcard']
15,13,a535a8a7e5afca51b036fc8257bf81cb,48.83484585882868,2.2479459643363957,Edouard Vaillant - Paul-Adolphe Souriau,2023-12-21T06:28:03.380000Z,False,1,1703138764,False,1,1,28,252339799,21019,
16,1,e47a8672eba3d872f3e61d5a330d2d46,48.84274150283194,2.335021197795868,Michelet - Assas,2023-12-21T06:28:10.907000Z,False,0,1703138484,False,1,1,18,224589573,6018,
27,9,96d117e55dc5c0e9e57b1b01fce3ad2f,48.8354337,2.4077132,Porte Dorée,2023-12-21T06:28:11.101000Z,True,2,1703138729,True,1,1,36,220502135,12032,['creditcard']
15,43,1d49018294e5592b48197e5c57c5bf53,48.83868901709515,2.2818081825971603,Félix Faure - Lourmel,2023-12-21T06:28:08.537000Z,True,5,1703138774,True,1,1,58,253357936,15032,['creditcard']
31,1,ff670cd94cced5c75e82e9e0c397c894,48.87660391892763,2.404769691129476,Belleville - Porte des Lilas,2023-12-21T06:28:01.687000Z,False,1,1703138240,False,1,1,32,129114993,19037,
18,2,f44bf707a0a363eaba8bc82581e6424e,48.8694370761222,2.40539657537972,Haxo - Surmelin,2023-12-21T06:28:03.744000Z,False,1,1703138687,False,1,1,21,129124069,20109,
25,14,0e1e6b316c717863017854fca0971f42,48.876327,2.3585464,Gare de l'Est - Place du 11 Novembre 1918,2023-12-21T06:28:11.811000Z,True,5,1703138751,True,1,1,40,476183970,10165,['creditcard']
37,17,83911f48161327bb1e16d51784820e05,48.897488,2.343996,Porte de Clignancourt.,2023-12-21T06:28:09.996000Z,True,10,1703138708,True,1,1,56,221041655,18032,['creditcard']
23,10,7d4a1deff9c53059e2650658661a840c,48.83094844846017,2.37965351592796,Primo Levi - Frigos,2023-12-21T06:28:09.825000Z,True,0,1703138604,True,1,1,34,129061615,13016,['creditcard']
14,4,323ff75e83a2550646f17439b335ff4a,48.850188262662,2.3275961726904,Place Alphonse Deville,2023-12-21T06:28:01.969000Z,False,1,1703138717,False,1,1,23,221094844,6107,
5,25,95c1435aa0f5215f55c0f05b26a54aa5,48.946504,2.2496396,Hôtel de Ville d'Argenteuil,2023-12-21T06:28:01.944000Z,True,8,1703138476,True,1,1,30,977206088,51003,['creditcard']
32,21,cd8520e3523db2cabae509e756e9c13c,48.85023459321703,2.3303819820284843,Mézières - Rennes ,2023-12-21T06:28:01.544000Z,True,1,1703138747,True,1,1,55,220726050,6103,['creditcard']
27,32,17a8f11795484ba98d4567f6b2a4a81f,48.83959442800459,2.3010657727718353,Place Adolphe Cherioux - Vaugirard,2023-12-21T06:28:07.160000Z,True,6,1703138755,True,1,1,63,254224239,15038,['creditcard']
13,9,7e8a8d0fb1e162341d0d55ed86f2ed09,48.884432270368,2.2608044743538,Charles de Gaulle - Madrid,2023-12-21T06:28:09.052000Z,True,6,1703138573,True,1,1,22,252301607,22005,['creditcard']
10,9,a3ed081725c7cb0dd19cd556164300db,48.8862524447104,2.3689296841621403,Tanger - Place du Maroc,2023-12-21T06:28:05.719000Z,False,8,1703138791,False,1,1,19,129116697,19109,
5,13,f7fbba029f890b7c1689129b370b9e53,48.87068263384462,2.398959602331646,Ménilmontant - Pelleport,2023-12-21T06:28:10.676000Z,False,12,1703138748,False,1,1,19,129119449,20036,
27,10,a789bcac867c5fc853fe60539ff272dd,48.85493692155721,2.436049282550812,Vincennes - Douy-Delcupe,2023-12-21T06:28:10.805000Z,False,6,1703138680,False,1,1,38,977409509,31019,
26,6,b265bb38050ed4bacc98c10ad3a7e671,48.92540695835961,2.3644426837563515,Place du Cornillon - Stade de France,2023-12-21T06:28:10.176000Z,True,5,1703138800,True,1,1,34,653055049,32014,['creditcard']
14,24,a2047790eab21c53adbba02ed0bfe5bc,48.8563358,2.3829901,Belfort - Voltaire,2023-12-21T06:28:04.416000Z,True,7,1703138806,True,1,1,39,43165673,11020,['creditcard']
2,18,e10334329979d79bc75ae65ed0689017,48.898708366365064,2.3295360803604126,Porte de Saint-Ouen - Henri Huchard,2023-12-21T06:28:04.792000Z,False,4,1703138691,False,1,1,26,1057769632,17124,
36,10,f467fe438cbe1dce4294f2dadb442ffb,48.885263,2.298286,Place du Maréchal Juin - Péreire,2023-12-21T06:28:04.228000Z,True,3,1703138810,True,1,1,46,213690256,17027,['creditcard']
20,0,b2ecfbe37576fd2c3ad451558f000232,48.857992591527,2.3469167947769,Victoria - Place du Chatelet,2023-12-21T06:28:11.256000Z,True,0,1703138534,True,1,1,22,82328045,1002,['creditcard']
15,10,3db84decfb18c8fbe9191cf0de04b66f,48.8731167,2.3593052,Vinaigriers - Magenta,2023-12-21T06:28:02.352000Z,True,0,1703138761,True,1,1,25,37921892,10012,['creditcard']
9,11,e886722f2af501a2bc3141f4b198da12,48.85249172181667,2.462034523487091,République - Danton,2023-12-21T06:28:07.073000Z,False,10,1703138687,False,1,1,20,1063404053,41204,
18,1,028ed44281b0fa4742e287043c155a98,48.82650293311,2.3092747998272,Colonel Monteil - Brune,2023-12-21T06:28:11.930000Z,False,1,1703138479,False,1,1,19,10968855,14122,
11,13,2145db942397eff83bf2a5778efe8192,48.90636459217474,2.2835066914558415,Gare d'Asnières sur Seine,2023-12-21T06:28:11.226000Z,True,7,1703138734,True,1,1,24,985086307,26001,['creditcard']
1,24,8ded3e624001e2ca893e0ee830c0946f,48.8222334178559,2.4215328320860863,Verdun - Adrien Damalix,2023-12-21T06:28:11.709000Z,True,19,1703138739,True,1,1,26,82508970,44102,['creditcard']
19,3,4dd908f32b997b30c247b8ac08c99588,48.878249,2.341181,Milton - Manuel,2023-12-21T06:28:10.452000Z,False,1,1703138482,False,1,1,22,653055097,9115,
10,14,44dca2a45e5c2cc738a308ec18fdb562,48.87979886049996,2.374839261174202,Edouard Pailleron - Simon Bolivar ,2023-12-21T06:28:11.882000Z,False,12,1703138795,False,1,1,24,27246227,19039,
21,3,fd998b7e54a70dc4887c748fc2cdb1d5,48.877532084130166,2.294512536052928,Mac-Mahon - Brey,2023-12-21T06:28:11.528000Z,True,3,1703138715,True,1,1,25,54000598,17046,['creditcard']
4,16,2a805be4d04fa8ad9ae78e94296769fb,48.84749841771691,2.26848387135299,Eglise d'Auteuil,2023-12-21T06:28:06.752000Z,False,2,1703138550,False,1,1,21,63297,16032,
14,10,dbf093a8a73193e48da63e83518e7fa5,48.88753640381415,2.334307730197907,Lepic - Armée d'Orient,2023-12-21T06:28:09.059000Z,False,9,1703138771,False,1,1,24,213692714,18113,
3,20,e8c0f773f633d966151d5adf76666915,48.84576261454011,2.2369650006294255,Jean Jaurès - Jean Baptiste Clément ,2023-12-21T06:28:11.849000Z,True,1,1703138800,True,1,1,24,95927849,21003,['creditcard']
2,21,b80eaf3c0a9b389c2730a50539982203,48.890404028589806,2.270106375217438,Château - Bineau,2023-12-21T06:28:11.378000Z,True,5,1703138513,True,1,1,23,102341385,22001,['creditcard']
15,10,e528e20a2832c24b4b3a3e360f1053a6,48.883769733273496,2.29858466343129,Courcelles - Pierre Demours,2023-12-21T06:28:09.861000Z,True,1,1703138449,True,1,1,26,27415327,17047,['creditcard']
25,14,5c2639c19391b5ecbc5fa57b45a699d2,48.892939296937605,2.3445510864257812,Mairie du 18ème,2023-12-21T06:28:11.534000Z,True,3,1703138624,True,1,1,40,54000605,18025,['creditcard']
23,6,04a30da088338d28544252beeacbc9e5,48.8862074,2.3206239,Bridaine - Lamandé,2023-12-21T06:28:02.691000Z,False,2,1703138599,False,1,1,29,979059925,17122,
9,5,3a4b41ac0677794a7209295f5699987b,48.8691543609174,2.40932246879487,Porte de Ménilmontant,2023-12-21T06:28:11.227000Z,False,5,1703138402,False,1,1,15,6512,20027,
31,0,46fb8069ca45ead7d9ed40414197cf5b,48.871815737396,2.3372015478451,Laffitte - Italiens,2023-12-21T06:28:04.452000Z,False,0,1703138795,False,1,1,33,27363323,9023,
21,41,0e68db55a1a81be48d350135377f1e4c,48.829654975522,2.2638675570488,Place Lafayette,2023-12-21T06:28:01.220000Z,True,5,1703138702,True,1,1,62,82584215,21306,['creditcard']
35,3,6ca396381dc2e5d8d179d85ae3555abd,48.86254398506782,2.403290458023548,Indre - Prairies,2023-12-21T06:28:08.592000Z,False,2,1703138624,False,1,1,38,85118872,20021,
1,20,102421308fe5b33bdbde25c736a2ea1f,48.844974,2.287283,Lourmel - Marie Skobtsov,2023-12-21T06:28:08.124000Z,False,4,1703138796,False,1,1,22,102289046,15108,
36,3,011948af9fad35dfda6e1adf45b81bed,48.8756045,2.3995549,Belleville - Télégraphe,2023-12-21T06:28:11.288000Z,False,3,1703138346,False,1,1,41,124402232,19040,
8,13,aacfd26d587b548d359e965dee4277c3,48.852297362582,2.3414132371545,Danton - Serpente,2023-12-21T06:28:08.092000Z,True,1,1703138821,True,1,1,22,100798076,6016,['creditcard']
21,8,7f597fd4deb148ebb2e0545b229e5bc7,48.89659571178903,2.384599149227142,Cité des Sciences et de l'Industrie,2023-12-21T06:28:03.456000Z,True,1,1703138736,True,1,1,30,82577019,19009,['creditcard']
6,34,830d78c2cc265de5070ce99ce5be32a0,48.8202823,2.473775,Place de Verdun,2023-12-21T06:28:08.012000Z,False,6,1703138781,False,1,1,40,985828965,43402,
3,16,f621ac13ababcd13d314e8416fa2a0f7,48.89383909781389,2.325953990221024,Square des Epinettes,2023-12-21T06:28:09.516000Z,False,9,1703138804,False,1,1,20,989753852,17121,
0,16,1103964029f152a0c6be5c8931f0a1b3,48.8099849920804,2.4580853059887886,Les Planètes ,2023-12-21T06:28:10.284000Z,False,3,1703138776,False,1,1,16,990000217,47006,
7,3,247b13bd4c2dde7fd4230e0ecb48863d,48.87701838803332,2.3513179644942284,Chabrol - d'Hauteville,2023-12-21T06:28:09.883000Z,False,3,1703138689,False,1,1,11,121025345,10020,
18,4,2de8ebd65ce0988a44d6e9334e031102,48.820864559770676,2.291113436222077,Square du Carrefour de l'Insurrection,2023-12-21T06:28:11.167000Z,False,4,1703138344,False,1,1,23,129136818,21703,
11,32,f77c0307a27fab0d3d48420f4127a917,48.860934,2.375841,Square Saint-Ambroise,2023-12-21T06:28:11.058000Z,True,5,1703138677,True,1,1,43,66491394,11041,['creditcard']
14,8,893c86b48d2cf0413a16c8b63f79cb89,48.831448892608314,2.2412404417991643,Hameau Fleuri - Marché,2023-12-21T06:28:03.944000Z,False,3,1703138787,False,1,1,22,27363137,21014,
12,35,5554d5346800146173e3a83b2a21304f,48.88960028134536,2.3628534749150276,Pajol - Riquet ,2023-12-21T06:28:00.892000Z,True,25,1703138801,True,1,1,47,39256416,18109,['creditcard']
12,8,d98bd61b23c66085d4c05141739b43cf,48.8755044846,2.3890327325519,Lassus - Delouvain,2023-12-21T06:28:03.780000Z,False,8,1703138715,False,1,1,20,255207155,19038,
15,20,a5fb3ba2ae84664e8ba0746dd6d9def2,48.8943782,2.3415122,Emile Blemont - Poteau,2023-12-21T06:28:06.248000Z,True,10,1703138776,True,1,1,39,63769334,18029,['creditcard']
21,26,33c87c4c91c2e7f0157a0ddf4f024f3f,48.8232579,2.2965213,Jean Bleuzen - Square du 11 Novembre,2023-12-21T06:28:01.356000Z,True,24,1703138723,True,1,1,49,98132679,21706,['creditcard']
14,9,4e5d45e2645f52e7e1c603bfd3b99569,48.85558642847872,2.408762907764669,Orteaux - Mouraud,2023-12-21T06:28:09.926000Z,False,7,1703138749,False,1,1,24,27415469,20118,
19,2,c0ca414cc7641f067e9142aad86cc77c,48.8583666,2.2744515,François Ponsard - La Muette ,2023-12-21T06:28:11.845000Z,True,1,1703138695,True,1,1,23,39599631,16021,['creditcard']
19,4,a62b710a59f6b8bef80feaf0d9efdd82,48.87428447542072,2.332976511564311,Provence - Chaussée d'Antin,2023-12-21T06:28:08.432000Z,True,0,1703138552,True,1,1,25,84979504,9031,['creditcard']
5,30,b182b8f3c3bf89592cbad0e7118a6d3e,48.856433706943704,2.379020587761426,Ledru-Rollin - Place du Père Chaillet,2023-12-21T06:28:02.548000Z,True,2,1703138808,True,1,1,37,82404497,11006,['creditcard']
30,5,43dc0e0b1107cc0a0401a8ae3c4d2550,48.848274111398,2.3292413726449,Assas - Vaugirard,2023-12-21T06:28:11.916000Z,False,2,1703138717,False,1,1,35,37936869,6030,
7,8,2a9ebc217a345318014a16d3f70d4b22,48.86500081847653,2.403980836377493,Pelleport - Belgrand,2023-12-21T06:28:10.344000Z,False,8,1703138409,False,1,1,15,85120104,20023,
20,14,bf7454ba878d169a278e984513d65bb6,48.891213890844654,2.351288666219873,Ordener - Poissonniers,2023-12-21T06:28:11.533000Z,True,10,1703138806,True,1,1,35,54000604,18023,['creditcard']
28,14,018775abbd605664f7b0616bbf3703a8,48.84243457133779,2.2921819612383847,Place Etienne Pernet,2023-12-21T06:28:11.880000Z,True,0,1703138741,True,1,1,43,101748685,15035,['creditcard']
9,8,8bed56510cbe8d46a9f696e46e85dc00,48.872089449907,2.3575825989246,Mairie du 10ème,2023-12-21T06:28:02.962000Z,True,1,1703138745,True,1,1,19,82396562,10009,['creditcard']
47,5,b86083ce4a62fc53e6bd20dd076e4ba6,48.89859661942376,2.3689722642302513,Porte d'Aubervilliers,2023-12-21T06:28:11.539000Z,False,4,1703138639,False,1,1,55,54000608,18049,
5,22,97abd1f80091fc8dd2696ba4cddbd48a,48.87532687671517,2.4241617321968083,Sadi Carnot - François Mitterrand ,2023-12-21T06:28:11.665000Z,False,22,1703138778,False,1,1,27,102743096,31703,
27,3,f734bc9d26c1dad71fdf5d392ba8bb0d,48.878255397645,2.3452642187476,Bellefond - Maubeuge,2023-12-21T06:28:01.996000Z,True,1,1703138564,True,1,1,31,653059015,9117,['creditcard']
28,25,7c170ff921cdea5c238904095152d77d,48.8482070397636,2.2898658737540245,Théâtre - Lourmel,2023-12-21T06:28:03.920000Z,True,4,1703138767,True,1,1,53,101746493,15031,['creditcard']
19,3,1aad4499e2b1016bcf8bbee3814aeb7b,48.89088305227546,2.3688579350709915,Aubervilliers - Curial,2023-12-21T06:28:07.552000Z,True,2,1703138288,True,1,1,23,991351798,19127,['creditcard']
25,0,f9a2990400288884bff5981100353804,48.871811807816,2.300238981843,Champs-Elysees - Bassano,2023-12-21T06:28:07.866000Z,True,0,1613934558,True,0,0,25,1015246367,8116,['creditcard']
16,20,1dc8f0a127db113cc4c1069f886fa365,48.83850740333351,2.2782871127128606,Balard - Montagne de la Fage,2023-12-21T06:28:11.522000Z,False,1,1703138740,False,1,1,36,54000592,15070,
14,5,31a0e7e0c55261923e2025c455d49a41,48.862654215631,2.3670325062844,Place Pasdeloup,2023-12-21T06:28:02.952000Z,True,3,1703138334,True,1,1,21,100918666,11043,['creditcard']
13,3,bc90f39857a6b9e2a4b09baf2562b6ab,48.83586772099485,2.33798034198275,Méchain - Faubourg Saint-Jacques,2023-12-21T06:28:05.003000Z,False,2,1703138458,False,1,1,16,15409531,14112,
9,11,389eb96c087a32563d11a89445d0f9c1,48.80896378683884,2.4345204234123234,Stade Auguste Delaune,2023-12-21T06:28:09.739000Z,True,1,1703138706,True,1,1,21,29327,47004,['creditcard']
33,14,0cbe6d60aa0afa85306243e6848f29e1,48.85132886434057,2.277785539627075,Maison de Radio - France,2023-12-21T06:28:09.706000Z,True,1,1703138748,True,1,1,47,15397468,16029,['creditcard']
17,14,9518e77af08d1c9de97c239cf8b88392,48.88667396788626,2.353205569088459,Square Léon,2023-12-21T06:28:02.668000Z,False,11,1703138627,False,1,1,33,125469898,18008,
15,2,e3d873abcbe4ec8a51356f040a68d74e,48.87939826447722,2.333709173337285,Jean-Baptiste Pigalle - La Bruyere,2023-12-21T06:28:07.784000Z,True,1,1703138818,True,1,1,17,36298,9026,['creditcard']
15,11,44a4b9db28d7ffd265ac2514f9d3570d,48.848280403628806,2.2373420120857195,Transvaal - Charles de Gaulle ,2023-12-21T06:28:02.204000Z,True,5,1703138409,True,1,1,27,37903195,21001,['creditcard']
15,18,462e1e678d255391b14241ac6d8389b7,48.89669238777841,2.338023450388167,Belliard - Damrémont,2023-12-21T06:28:07.320000Z,True,11,1703138738,True,1,1,34,102313219,18033,['creditcard']
50,11,0a04d34c4d0c49b40f0d8747a792cd7e,48.85286124871689,2.268483570651513,Mozart - Jasmin,2023-12-21T06:28:07.180000Z,True,5,1703138529,True,1,1,62,15387809,16027,['creditcard']
29,13,87703ddf1e1a414a10a8d0dc7ab4b647,48.849259262115,2.3917546141943,Boulets - Faubourg Saint-Antoine,2023-12-21T06:28:10.889000Z,False,4,1703138815,False,1,1,43,100906707,11010,
11,11,8a8c32c98e07071125d3b1ac06f43e59,48.85386896766491,2.402426162238911,Haies - Réunion,2023-12-21T06:28:10.041000Z,False,8,1703138673,False,1,1,22,66491407,20116,
14,3,ed2cb6b3ecf3e8fc2526518c903bf62a,48.84308531746595,2.320263946784738,Maine - Antoine Bourdelle,2023-12-21T06:28:11.919000Z,True,0,1703138814,True,1,1,17,27369223,15002,['creditcard']
7,17,862b0065529ede9a4b3473e3d9ea5b95,48.826885843069796,2.2723413258790965,Kléber - Gouverneur Général Eboué,2023-12-21T06:28:10.909000Z,False,1,1703138807,False,1,1,24,102336814,21310,
6,17,2f63b8646fd510de01be41619be925fb,48.89034054052266,2.2920683026313786,Président Wilson - Jean Jaures,2023-12-21T06:28:11.158000Z,False,11,1703138614,False,1,1,27,484423835,23007,
8,10,f9539f4625a0dc2d32762a8cbfae1f3f,48.85714001395299,2.4043509364128113,Pyrénées - Maraîchers,2023-12-21T06:28:11.552000Z,True,2,1703138738,True,1,1,19,54000618,20016,['creditcard']
22,6,56127eb9720adb51b601e8b935e0a44a,48.875352455985,2.2964416444302,Beaujon - Wagram,2023-12-21T06:28:00.791000Z,True,5,1703138487,True,1,1,29,224256188,8056,['creditcard']
19,12,b78d65c32354443bd0098fc31bbdaf88,48.870948218595,2.3612049221992,Place Jacques Bonsergent,2023-12-21T06:28:00.851000Z,True,1,1703138711,True,1,1,33,210583589,10010,['creditcard']
19,7,708acae760e37ba6e3c808518cf4bab9,48.879960700846226,2.321358695626259,Naples - Rome,2023-12-21T06:28:11.529000Z,True,4,1703138811,True,1,1,26,84966359,8019,['creditcard']
11,3,3796cdf0f0ff7b72a9cfa1ed01c60ef0,48.85780291711202,2.277500546942199,Place de Passy,2023-12-21T06:28:10.839000Z,False,3,1703138454,False,1,1,15,15291968,16043,
19,18,bfdf67edbee29fe9460c0d7eba541fa5,48.93554324248177,2.3471488058567047,Gare RER de Saint-Denis,2023-12-21T06:28:03.888000Z,True,6,1703138355,True,1,1,40,653059879,32015,['creditcard']
23,2,35dde203e8309584f0f623491acb6c67,48.860089892617,2.344057559967,Pont Neuf - Rivoli,2023-12-21T06:28:10.696000Z,True,0,1703138715,True,1,1,27,1002059045,1117,['creditcard']
11,16,b1df59f0dfbfc6780429af244453714b,48.880423508429,2.3527636751533,Gare du Nord - Dunkerque,2023-12-21T06:28:09.841000Z,True,5,1703138738,True,1,1,29,37647,10028,['creditcard']
26,0,bbbe9c129e66e5d0ea2af6e5f6cffba0,48.859279702476,2.3466217517853,Lavandieres Sainte Opportune - Rivoli,2023-12-21T06:28:10.220000Z,False,0,1703138813,False,1,1,27,1002738770,1120,
36,28,e317e1d55f54f9b73f1d64c212c60b75,48.85972615790874,2.325860448181629,Musée d'Orsay,2023-12-21T06:28:07.814000Z,True,2,1703138606,True,1,1,65,100863462,7007,['creditcard']
13,1,f1a74a12c54dc5526e2a5fa27cccbb4a,48.868144510482075,2.296149600985935,Bassano -  Iéna,2023-12-21T06:28:11.690000Z,False,1,1703138550,False,1,1,15,7304,16015,
19,0,1e2a869341ba89aa51baa14ccc762f81,48.883601088297,2.3332237824798,Clichy - Place Blanche,2023-12-21T06:28:02.242000Z,True,0,1703138815,True,1,1,20,126354477,18043,['creditcard']
30,0,72cdc7f2b8b1b5e56951a1d47d34eecf,48.784567029674,2.3979035764933,8 Mai 1945 - 10 Juillet 1940,2023-12-21T06:28:09.716000Z,True,0,1699174602,True,0,0,30,1057387136,44010,['creditcard']
9,12,ad3ee1118ade84c9d4a9042d60facb74,48.847648620797,2.3902582749724,Diderot - Pierre Bourdan,2023-12-21T06:28:03.404000Z,False,2,1703138731,False,1,1,21,54000572,12107,
18,8,3eabc45c80180c6ff26055d38748820d,48.88109246617963,2.3408224806189537,Lallier - Trudaine ,2023-12-21T06:28:11.538000Z,True,6,1703138763,True,1,1,29,42908639,9017,['creditcard']
19,4,92afdd348c1cb23f0ddf66efc9838172,48.880955741648,2.3524305148385,Gare du Nord - Saint-Vincent de Paul,2023-12-21T06:28:11.155000Z,False,2,1703138430,False,1,1,24,6298,10033,
33,12,37906585c441a31adf9a7503223f83db,48.887070607581215,2.304111124531457,Pereire - Place de Wagram,2023-12-21T06:28:06.296000Z,True,5,1703138717,True,1,1,46,102304517,17022,['creditcard']
13,19,356319d9912eac917f294d7a9255a7a6,48.850735824128805,2.375870111706245,Traversière - Ledru-Rollin,2023-12-21T06:28:10.051000Z,True,4,1703138654,True,1,1,34,37920,12004,['creditcard']
34,4,98cbc5337e1ebbce250cb8f3b0c5b58f,48.863287291502,2.3869940266013,Ménilmontant - Père Lachaise,2023-12-21T06:28:11.554000Z,True,3,1703138778,True,1,1,41,54000621,20030,['creditcard']
19,7,ac84962093d74f46b5fe4dd89561ca47,48.852575112948415,2.331552766263485,Sabot - Rennes,2023-12-21T06:28:08.564000Z,True,3,1703138798,True,1,1,26,100855693,6032,['creditcard']
13,8,97a61a9cd77866e269df86547624c2b5,48.833468517426,2.2858720645308,Palais des Sports,2023-12-21T06:28:08.991000Z,True,3,1703138719,True,1,1,22,259977414,15107,['creditcard']
15,30,31443b36df8505669e80765f7b45b13a,48.80956436844049,2.3626908659935,Fontainebleau - Edmond Michelet,2023-12-21T06:28:11.778000Z,True,12,1703138812,True,1,1,45,85162552,42703,['creditcard']
43,6,d7738cfd81cd7a74ff9d0c831781dc55,48.8377016,2.3604946,Hôpital Pitié Salpêtrière,2023-12-21T06:28:04.904000Z,True,5,1703138523,True,1,1,50,35137730,13103,['creditcard']
33,3,c04cc7c5734ec4065cbf765a5c99711f,48.8569864146289,2.282173218142987,Chernoviz - Raynouard,2023-12-21T06:28:07.064000Z,False,2,1703138288,False,1,1,37,52329,16112,
34,9,518cf61f91caf4d1053228b2952b63b5,48.8256423,2.3750226,Eugène Oudiné - Dessous Des Berges,2023-12-21T06:28:09.216000Z,False,0,1703138747,False,1,1,44,256561528,13046,
21,2,fc3e8a61f8dde32eb23e8bdeefc015fe,48.8561915,2.2152966,Mont Valérien - Michel Salles,2023-12-21T06:28:02.488000Z,True,1,1703138486,True,1,1,24,452920451,22102,['creditcard']
39,7,f558440a70c6290837a375ba3cf064d4,48.84021670922,2.2716060653329,Place du Moulin de Javel,2023-12-21T06:28:00.855000Z,False,0,1703138699,False,1,1,45,101761298,15058,
9,4,c0e877315f46f40bc1ef9a82c9075771,48.881823370566806,2.3202589899301524,Batignolles - Rome,2023-12-21T06:28:06.788000Z,False,2,1703138735,False,1,1,15,82381710,8051,
6,13,268b2a76ece2f9c08373a4d7f4437d3e,48.85355351439652,2.3639122769236565,Neuve Saint-Pierre - Beautreillis,2023-12-21T06:28:03.051000Z,False,2,1703138782,False,1,1,20,1020700136,4110,
15,12,a9b725738c4d5e65b432322380ffc6f4,48.887808570529,2.3000952981763,Alfred Roll - Berthier,2023-12-21T06:28:05.667000Z,False,1,1703138816,False,1,1,28,39217683,17102,
24,7,009ceb0db951391aa947e5c2d939518e,48.834254627953,2.317609339387,Pernety - Raymond Losserand,2023-12-21T06:28:11.510000Z,True,6,1703138787,True,1,1,32,54000586,14030,['creditcard']
17,48,677733930199bba381b05cb4671c686a,48.8418071798797,2.31951002690117,Gare Montparnasse - Vaugirard,2023-12-21T06:28:11.518000Z,False,29,1703138762,False,1,1,66,54000588,15003,
5,10,c16277b71cfb169bddbb29bb420f624b,48.858297001218,2.3237934708595,Villersexel - Saint-Germain,2023-12-21T06:28:11.462000Z,False,5,1703138612,False,1,1,16,54000549,7008,
29,3,9630a6b8b51146c17a242e365c5694e2,48.84954227788459,2.337939441204071,Sénat - Condé,2023-12-21T06:28:11.456000Z,True,1,1703138787,True,1,1,33,54000546,6017,['creditcard']
52,7,5e105726e01c9c076168257bbc2b049e,48.874794994841,2.366669436985,Granges aux Belles - Hôpital Saint-Louis,2023-12-21T06:28:05.045000Z,True,3,1703138723,True,1,1,60,129042700,10114,['creditcard']
0,0,0539643b6bdedb80d9a1165c7e93aabb,48.828156251575,2.3585135329033,Parc de Choisy,2023-12-21T06:28:07.268000Z,False,0,1688643072,False,0,0,0,27364581,13122,
8,14,46d9b937b7b4f018767106c6fe3fd435,48.883886063895,2.367198803315,Aqueduc - Villette,2023-12-21T06:28:11.321000Z,False,9,1703138769,False,1,1,28,210737808,10036,
31,11,7e295427bc65e29626f90d52a934e3b1,48.8741908,2.3860039,Belleville - Pyrénées,2023-12-21T06:28:02.788000Z,False,9,1703138656,False,1,1,42,256124192,19041,
22,9,90b0df158e64ee58661addd5a5091470,48.88104925098552,2.424993216991425,Calmette,2023-12-21T06:28:10.042000Z,False,9,1703138402,False,1,1,32,66491408,32603,
15,6,0f5c304ce3b746e004c21ca12c206fee,48.8322649,2.2380413,Billancourt - Général Leclerc ,2023-12-21T06:28:06.984000Z,True,4,1703138396,True,1,1,22,1021176825,21024,['creditcard']
7,16,fa2b28a7180af7d6659c5972ba573a85,48.87649965412676,2.379407362599104,Manin - Simon Bolivar,2023-12-21T06:28:11.548000Z,True,11,1703138591,True,1,1,26,54000611,19023,['creditcard']
15,15,382a0f4f24b043e0abb2833231bdacc2,48.865242333228,2.3516669869423,Greneta - Sebastopol,2023-12-21T06:28:11.322000Z,True,0,1703138787,True,1,1,32,335780498,2001,['creditcard']
11,6,28d31d4e0cc50e2c47b4c2364822f512,48.871446353921,2.3382901058508,Favart - Italiens,2023-12-21T06:28:07.409000Z,False,4,1703138251,False,1,1,17,36151,2013,
9,44,265b3b57c13220c4331940be4554ee05,48.82747252522725,2.2784319519996648,Parvis Corentin Celton,2023-12-21T06:28:08.907000Z,True,9,1703138752,True,1,1,55,213848056,21311,['creditcard']
3,60,a0269dc7b97959671ca0a90d98be4359,48.840639944296655,2.2780618071556096,Parc André Citroën,2023-12-21T06:28:11.450000Z,True,1,1703138784,True,1,1,65,54000545,15059,['creditcard']
22,5,9a28fe91cb383c274df5a5aa8c112044,48.866887649978,2.3066755757207,François 1er - Montaigne,2023-12-21T06:28:06.424000Z,True,4,1703138705,True,1,1,29,66505511,8038,['creditcard']
24,8,4ae15c04833b6c26d4a9ce7ead2110cd,48.87345073390807,2.320404499769211,Roquépine - Malesherbes,2023-12-21T06:28:02.916000Z,True,4,1703138699,True,1,1,37,100902274,8015,['creditcard']
51,9,352d5d15138c67ee90d6296b47e195c8,48.8338064,2.4132221,Bois de Vincennes.,2023-12-21T06:28:00.962000Z,True,3,1703138630,True,1,1,60,452936197,12041,['creditcard']
24,33,09d9381a301d194ae91fee001e6b76a9,48.861273016278126,2.309453550914185,Surcouf - Université,2023-12-21T06:28:10.002000Z,True,5,1703138722,True,1,1,58,66491386,7016,['creditcard']
16,4,182d7dfdb2b00038fff4bc4d120cf66c,48.89874803977525,2.3645754531025887,Ney - Charles Hermite,2023-12-21T06:28:01.861000Z,True,2,1703138347,True,1,1,20,1023083417,18138,['creditcard']
29,7,f6f373737d04380102eda6107e7bfe63,48.882555807626765,2.3497482016682625,Faubourg Poissonniere - Delta,2023-12-21T06:28:07.213000Z,True,2,1703138774,True,1,1,36,1021553839,9118,['creditcard']
8,28,ba479f283b923edeb999197b70c4a78d,48.834097274832295,2.3087677359581,Saint-Amand - Labrouste,2023-12-21T06:28:11.246000Z,True,17,1703138713,True,1,1,36,101751231,15040,['creditcard']
27,4,eab7bcad3bb8f5d0e805545689abfbc6,48.877321579493575,2.4083782732486725,Place du Maquis du Vercors,2023-12-21T06:28:04.928000Z,True,3,1703138434,True,1,1,31,484387018,20019,['creditcard']
22,6,96b8a6032ec2f86759a21a73bc399c76,48.873802681432146,2.427820265293122,Jeanne Hornet - Girardot,2023-12-21T06:28:02.528000Z,False,6,1703138752,False,1,1,29,82568336,31704,
28,1,842bd8e36dd32f151107f6bce53085ab,48.870790980240706,2.3431010171771054,Uzès - Montmartre,2023-12-21T06:28:11.408000Z,True,1,1703138627,True,1,1,29,54000466,2010,['creditcard']
34,7,97b6708834de025b9e45127a27d85dbf,48.847460641142,2.3126140236855,Duroc - Place de Breteuil,2023-12-21T06:28:08.959000Z,False,0,1703138723,False,1,1,42,100872260,7013,
